DB Name,SBB Name,StationName,Country,Region,lat,lon,RealDistance,2035alter,2035,2026,2025,2024,2023,2022,2021,2020,2019,2018,2017,2016,2015,2014 Q3/4,2014 Q1/2,2013,2012,2011,2009,2008,2005,2002,1982,MinimumTransferTime,2035_pop,2026_pop,2025_pop,2024_pop,2023_pop,2022_pop,2021_pop,2020_pop,2019_pop,2018_pop,2017_pop,2016_pop,2015_pop,2014 Q3/4_pop,2014 Q1/2_pop,2013_pop,2012_pop,2011_pop,2009_pop,2008_pop,2005_pop,2002_pop,1982_pop,SBB_pf_match_name,SBB_pf_match_method,SBB_pf_latest_year,SBB_pf_latest_dtv,SBB_pf_latest_dwv,SBB_pf_latest_dnwv,SBB_pf_latest_evu,SBB_pf_latest_isb_gi,SBB_dtv_2018,SBB_dwv_2018,SBB_dnwv_2018,SBB_dtv_2022,SBB_dwv_2022,SBB_dnwv_2022,SBB_dtv_2023,SBB_dwv_2023,SBB_dnwv_2023,SBB_dtv_2024,SBB_dwv_2024,SBB_dnwv_2024,SBB_dtv_2025,SBB_dwv_2025,SBB_dnwv_2025
,,Zürich HB,CH,ZH,47.378757,8.536602,0.0,12,204,160,160,154,160,156,158,152,152,150,150,150,136,136,128,128,128,126,126,124,118,106,66,7,232853,247877,245654,242584,241105,234596,233657,227951,225875,228410,225913,223454,230382,227229,225423,222178,223563,221608,215067,210714,200949,187197,186279,Zürich HB,exact,2025,449800.0,480900.0,380600.0,"SBB, SOB, SZU, Thurbo",SBB,423600.0,471300.0,317500.0,345300.0,360900.0,308700.0,398300.0,419600.0,349700.0,410700.0,438300.0,349500.0,449800.0,480900.0,380600.0
,,Zürich Oerlikon,CH,ZH,47.411962,8.544384,4.0,12,124,84,84,80,84,84,84,84,84,80,80,80,66,66,62,62,58,56,56,56,56,52,30,2,146611,130135,128968,126018,126580,126321,124222,125973,124825,121818,120487,119175,111803,110273,109189,107618,101302,98493,95586,95161,95365,91833,84672,Zürich Oerlikon,exact,2025,86200.0,99900.0,55700.0,"SBB, SOB",SBB,80000.0,94700.0,47400.0,73900.0,84000.0,50300.0,82200.0,94200.0,54900.0,84600.0,98100.0,54400.0,86200.0,99900.0,55700.0
,,Winterthur,CH,ZH,47.500549,8.723594,19.0,12,80,66,66,62,62,58,62,54,54,48,48,48,46,46,46,46,46,46,46,46,44,38,16,5,131591,122666,121566,120393,119315,117417,116279,115444,114393,113032,111797,110580,108979,107487,107487,105940,104680,103477,100423,99043,94574,92249,83803,Winterthur,exact,2025,103800.0,116400.0,75800.0,"SBB, Thurbo",SBB,95100.0,109300.0,63600.0,84900.0,93700.0,64200.0,99100.0,110900.0,72100.0,101800.0,114300.0,74000.0,103800.0,116400.0,75800.0
,,Zürich Altstetten,CH,ZH,47.391779,8.48897,5.0,0,68,44,44,44,44,44,44,44,44,40,40,40,32,32,32,32,32,32,32,32,28,28,8,2,73306,68166,67555,69310,66304,66168,65069,65986,65385,60909,60244,59588,54208,53466,56356,55545,55891,56281,54620,54378,47683,49448,22579,Zürich Altstetten,exact,2025,40500.0,48700.0,22400.0,"SBB, SOB",SBB,37200.0,46500.0,16400.0,32000.0,37600.0,18700.0,37800.0,44600.0,22100.0,39700.0,47600.0,22200.0,40500.0,48700.0,22400.0
,,Bern,CH,BE,46.94883229051,7.43913088992,56.0,12,60,64,60,60,60,48,48,48,48,46,46,46,46,46,46,46,44,42,42,42,50,42,30,6,142875,130762,129645,137978,136988,135430,134913,134354,133883,133304,132808,132213,131050,130012,130012,128963,127847,126873,125486,113993,114143,111676,118284,Bern,exact,2025,177000.0,191700.0,144300.0,"BLS, SBB, SOB, TPF",SBB,184000.0,206400.0,134100.0,155200.0,164800.0,132800.0,175400.0,189200.0,143800.0,177800.0,193100.0,143700.0,177000.0,191700.0,144300.0
,,Olten,CH,SO,47.35193475928,7.90769964791,30.0,0,48,50,50,50,50,46,46,46,46,46,46,46,50,50,50,50,50,50,50,50,54,34,28,5,20086,19106,18976,18907,18715,18426,18284,18103,17958,17824,17709,17580,17382,17206,17206,17057,16917,16767,16490,16431,16177,16068,14220,Olten,exact,2025,81600.0,86700.0,70500.0,"BLS, SBB, SOB",SBB,74100.0,83000.0,54400.0,68100.0,71800.0,59600.0,76900.0,80900.0,67600.0,78900.0,84500.0,66200.0,81600.0,86700.0,70500.0
,,Zürich Flughafen,CH,ZH,47.450387,8.562259,9.0,12,44,50,50,46,46,42,46,38,38,40,40,40,34,34,34,34,34,34,34,34,36,30,18,2,23444,21854,21658,21449,21257,20919,20716,20567,20380,20138,19918,19701,19416,19150,19150,18874,18650,18435,17891,17645,16849,16435,14930,Zürich Flughafen,exact,2025,53300.0,55500.0,48300.0,"SBB, Thurbo",SBB,50500.0,52500.0,46100.0,35000.0,35500.0,34000.0,48500.0,50000.0,45100.0,51100.0,52900.0,47100.0,53300.0,55500.0,48300.0
,,Zug,CH,ZG,47.174678,8.515743,21.0,0,44,28,28,28,32,32,32,28,28,28,28,28,28,28,22,22,22,22,22,22,22,22,16,4,35205,32901,32604,32281,31995,31659,31327,31087,30809,30615,30273,29917,29479,28986,28986,28510,28138,27783,26765,26643,25705,24718,18630,Zug,exact,2025,42100.0,47200.0,30700.0,"SBB, SOB",SBB,39600.0,46500.0,24500.0,36000.0,40000.0,26700.0,41200.0,45800.0,30700.0,41600.0,46900.0,29700.0,42100.0,47200.0,30700.0
,,Genève,CH,GE,46.21021289877,6.14245159514,163.0,4,40,28,24,28,28,28,28,28,28,28,24,24,28,28,28,28,24,24,24,24,24,24,10,6,191428,134512,125862,133173,160716,157561,156130,155179,198643,196812,195145,192889,191002,188106,188106,184972,182477,181466,178612,175781,169686,165000,140199,Genève,exact,2025,83100.0,92900.0,61400.0,SBB,SBB,60500.0,70700.0,37700.0,66900.0,74100.0,50000.0,79500.0,88500.0,59000.0,80600.0,89800.0,60100.0,83100.0,92900.0,61400.0
,,Baden,CH,AG,47.47642428463,8.30770947404,14.0,0,40,28,28,28,28,28,28,28,28,28,28,28,28,28,28,28,28,26,26,26,26,28,22,5,17597,17061,16880,16713,16511,16155,15970,15765,15579,15405,15241,15070,14848,14657,14657,14454,14250,13727,13322,13135,12641,12625,12603,Baden,exact,2025,34000.0,38500.0,23900.0,SBB,SBB,32100.0,37600.0,19900.0,27200.0,30100.0,20200.0,32700.0,35700.0,25900.0,33000.0,37200.0,23500.0,34000.0,38500.0,23900.0
,,Aarau,CH,AG,47.39135951418,8.0512737187,24.0,0,40,22,22,22,20,20,20,20,20,20,20,20,24,24,24,24,24,24,24,22,22,18,14,4,24943,23033,22788,22563,22290,21810,21560,21284,21031,20797,20576,20345,20045,19787,19787,19514,19237,18960,18400,18142,17459,17043,14075,Aarau,exact,2025,40100.0,46600.0,25700.0,"SBB, SOB",SBB,37900.0,44800.0,22700.0,33400.0,38200.0,22000.0,37700.0,43400.0,24700.0,39000.0,45300.0,24800.0,40100.0,46600.0,25700.0
,,Thalwil,CH,ZH,47.296095,8.564208,9.0,0,36,32,32,32,32,32,32,36,36,36,36,36,36,36,34,34,34,34,34,34,34,32,24,2,20471,19082,18911,18729,18561,18266,18089,17959,17795,17584,17391,17202,16953,16721,16721,16480,16284,16097,15622,15407,14712,14351,13037,Thalwil,exact,2025,17700.0,19800.0,13200.0,"SBB, SOB",SBB,17600.0,20100.0,12200.0,14800.0,16300.0,11200.0,17300.0,18900.0,13500.0,18200.0,20200.0,13800.0,17700.0,19800.0,13200.0
,,Lausanne,CH,VD,46.51679183548,6.6290923032,128.0,4,34,32,28,26,26,26,26,26,30,30,26,26,28,28,28,28,20,20,20,20,20,26,26,5,161376,148726,147205,145734,144160,141529,140257,138858,137211,136197,135171,133756,131810,129772,129772,127714,125155,123721,119560,117296,111476,107547,90568,Lausanne,exact,2025,97500.0,107700.0,75000.0,SBB,SBB,89200.0,102500.0,59800.0,86400.0,93700.0,69300.0,96700.0,105900.0,75800.0,102800.0,112600.0,81000.0,97500.0,107700.0,75000.0
,,Dietikon,CH,ZH,47.40578380658,8.40498818789,11.0,0,32,24,24,24,22,22,22,22,22,22,22,22,18,18,18,18,18,18,18,18,18,12,8,2,31103,28993,28733,28456,28201,27752,27484,27286,27038,26716,26424,26136,25758,25405,25405,25040,24742,24458,23736,23410,22353,21804,19808,Dietikon,exact,2025,21200.0,24300.0,14400.0,"SBB, SOB",SBB,20100.0,23700.0,12200.0,18600.0,21100.0,12800.0,20900.0,23700.0,14700.0,21300.0,24400.0,14200.0,21200.0,24300.0,14400.0
,,Thun,CH,BE,46.75485273061,7.62960582867,80.0,8,30,34,34,34,34,26,26,26,26,22,22,22,22,22,22,22,22,18,18,18,26,18,20,4,45792,44529,44322,44222,43905,43406,43240,43061,42910,42724,42565,42375,42002,41669,41669,41333,40975,40663,40219,40015,39510,39201,37910,Thun,exact,2025,32800.0,35500.0,26900.0,"BLS, SBB",BLS,32700.0,36000.0,25500.0,28200.0,30000.0,24000.0,31600.0,34000.0,26100.0,32400.0,35200.0,26300.0,32800.0,35500.0,26900.0
,,Spiez,CH,BE,46.68639566836,7.6801030578,90.0,8,28,32,32,32,32,24,24,24,24,20,20,20,20,20,20,20,20,18,18,18,24,16,20,4,13757,13377,13315,13285,13190,13040,12990,12936,12891,12835,12788,12730,12618,12518,12518,12417,12310,12216,12083,12021,11870,11777,11389,Spiez,exact,2025,18600.0,18600.0,18600.0,"BLS, SBB",BLS,16800.0,17500.0,15200.0,16100.0,16000.0,16400.0,17700.0,17900.0,17300.0,17700.0,18000.0,16800.0,18600.0,18600.0,18600.0
,,Weinfelden,CH,TG,47.56622426324,9.10636822199,48.0,12,28,30,30,28,26,24,24,24,24,16,16,16,16,16,16,16,16,16,16,16,20,20,12,2,13821,12686,12538,12411,12233,12002,11849,11723,11584,11456,11345,11217,11081,10928,10928,10785,10617,10441,10144,10020,9710,9527,7730,Weinfelden,exact,2025,16500.0,18400.0,12200.0,"SBB, Thurbo",SBB,14600.0,16600.0,10100.0,13500.0,14900.0,10300.0,15500.0,17400.0,11100.0,16100.0,18000.0,11900.0,16500.0,18400.0,12200.0
,,Pfäffikon SZ,CH,SZ,47.203281,8.77889,23.0,0,28,28,28,28,28,28,28,28,28,28,28,28,28,28,28,28,28,28,28,28,26,24,16,2,17968,17261,17159,17098,16943,16692,16567,16412,16242,16109,15921,15775,15596,15461,13528,13408,13269,13098,12814,12728,12063,10113,8868,Pfäffikon SZ,exact,2025,16700.0,18400.0,12800.0,"SBB, SOB",SBB,15000.0,16900.0,10800.0,14000.0,15300.0,10900.0,15700.0,17300.0,11900.0,16300.0,17900.0,12700.0,16700.0,18400.0,12800.0
,,Frauenfeld,CH,TG,47.55816340458,8.89655967341,36.0,12,28,20,20,20,20,16,16,16,16,16,16,16,16,16,16,16,16,16,16,16,20,20,12,2,30218,27738,27413,27136,26747,26242,25908,25632,25327,25048,24806,24526,24229,23894,23894,23581,23213,22829,22179,21908,21231,20829,16902,Frauenfeld,exact,2025,10600.0,11900.0,7800.0,"SBB, Thurbo",SBB,10400.0,11800.0,7100.0,9100.0,10000.0,7000.0,10200.0,11300.0,7600.0,10500.0,11700.0,7800.0,10600.0,11900.0,7800.0
,,Brugg AG,CH,AG,47.48085983499,8.20884455349,24.0,0,28,20,20,20,20,20,20,20,20,20,20,20,20,20,20,20,20,20,20,20,20,24,20,2,14870,13731,13585,13451,13288,13002,12853,12688,12538,12398,12266,12128,11950,11796,11796,11633,11468,11303,10969,10815,10408,10160,8391,Brugg AG,exact,2025,22800.0,26400.0,14800.0,SBB,SBB,20600.0,24500.0,11700.0,19000.0,21600.0,13000.0,22300.0,25200.0,15600.0,22400.0,25700.0,15000.0,22800.0,26400.0,14800.0
,,Wettingen,CH,AG,47.45963817594,8.31600617145,25.0,0,28,18,18,18,18,18,18,18,18,18,18,18,18,18,18,18,18,14,14,14,14,12,8,2,24036,22195,21959,21742,21479,21016,20775,20509,20266,20040,19827,19605,19315,19067,19067,18804,18537,18270,17731,17482,16824,16423,13563,Wettingen,exact,2025,5000.0,6000.0,2900.0,SBB,SBB,4900.0,6000.0,2400.0,4200.0,4800.0,2700.0,5000.0,5700.0,3400.0,5000.0,6000.0,2900.0,5000.0,6000.0,2900.0
,,Nyon,CH,VD,46.38441896755,6.23596613063,154.0,0,28,16,16,16,16,16,16,16,20,20,16,16,16,16,16,16,16,16,16,16,16,24,16,2,25765,23745,23502,23267,23016,22596,22393,22170,21907,21745,21581,21355,21044,20719,20719,20390,19982,19753,19088,18727,17798,17170,14460,Nyon,exact,2025,19300.0,22800.0,11500.0,SBB,SBB,15900.0,19500.0,8100.0,16300.0,18800.0,10300.0,18100.0,21400.0,10700.0,18800.0,22200.0,11400.0,19300.0,22800.0,11500.0
,,Morges,CH,VD,46.51110119788,6.49396950064,132.0,0,28,16,16,20,20,20,20,20,24,24,20,20,16,16,16,16,16,16,16,16,16,24,16,2,19836,18281,18094,17913,17720,17397,17240,17068,16866,16741,16615,16441,16202,15951,15951,15698,15384,15208,14696,14418,13702,13220,11132,Morges,exact,2025,17500.0,20200.0,11500.0,SBB,SBB,17000.0,20300.0,9700.0,18500.0,20700.0,13400.0,21400.0,24200.0,14900.0,22100.0,25200.0,15200.0,17500.0,20200.0,11500.0
,,St. Gallen,CH,SG,47.42317894991,9.36989666272,57.0,0,26,34,34,28,26,28,28,22,22,20,18,18,18,18,18,16,16,16,16,16,16,18,10,5,87231,72100,71396,78932,78213,76876,75894,75201,74650,74206,73766,73454,72944,72470,72470,47911,47459,47079,46253,45909,44823,39924,57644,St. Gallen,exact,2025,46900.0,51300.0,37100.0,"SBB, SOB, Thurbo",SBB,43000.0,48600.0,30500.0,39300.0,42700.0,31500.0,43700.0,48200.0,33500.0,44500.0,49000.0,34600.0,46900.0,51300.0,37100.0
,,Basel SBB,CH,BS,47.547107,7.588775,53.0,0,26,28,26,26,26,24,24,24,24,24,24,24,26,26,26,26,26,26,26,26,26,18,18,6,183708,178319,177646,177522,176329,173469,172807,173424,172638,171688,170932,170193,169088,167998,167998,166900,165217,164185,165634,164553,163609,164594,177306,Basel SBB,exact,2025,103800.0,112100.0,85600.0,"SBB, SBB GmbH, SOB",SBB,99800.0,111000.0,75000.0,85600.0,90900.0,73100.0,98600.0,105900.0,81900.0,100500.0,109000.0,81600.0,103800.0,112100.0,85600.0
,,Romanshorn,CH,TG,47.56552286488,9.37937129226,67.0,0,26,26,26,26,26,24,24,24,24,20,16,16,16,16,16,16,16,16,16,16,18,20,16,2,13250,12162,12020,11898,11728,11507,11360,11239,11105,10983,10877,10754,10624,10477,10477,10340,10178,10010,9725,9606,9309,9133,7411,Romanshorn,exact,2025,11800.0,12900.0,9600.0,"SBB, Thurbo",SBB,10400.0,11300.0,8500.0,10400.0,11200.0,8500.0,11100.0,12000.0,9100.0,12000.0,12900.0,10000.0,11800.0,12900.0,9600.0
,,Luzern,CH,LU,47.049812,8.310249,41.0,0,24,26,24,24,24,24,24,24,24,24,24,24,24,24,24,24,24,24,24,22,22,20,16,5,82653,76520,74894,74196,73315,71978,71211,70537,69990,69387,68870,68343,67557,66853,66853,66132,65409,64712,63187,61671,70441,69553,59019,Luzern,exact,2025,108800.0,114900.0,95400.0,"BLS, SBB, SOB, Zentralbahn",SBB,90800.0,97900.0,75300.0,84200.0,88100.0,75200.0,99400.0,104400.0,88000.0,103500.0,109800.0,89400.0,108800.0,114900.0,95400.0
,,Arth-Goldau,CH,SZ,47.048868,8.55111,40.0,0,24,24,24,24,26,26,26,24,24,24,24,24,24,24,20,20,20,20,20,20,20,24,18,4,13231,12710,12635,12590,12476,12291,12199,12085,11960,11862,11723,11616,11484,11385,11385,11283,11166,11023,10783,10711,10249,9929,7346,Arth-Goldau,exact,2025,20100.0,19700.0,21000.0,"SBB, SOB",SBB,14200.0,14400.0,13800.0,17300.0,16800.0,18600.0,19200.0,18500.0,20900.0,18800.0,18500.0,19300.0,20100.0,19700.0,21000.0
,,Wädenswil,CH,ZH,47.229333,8.675492,17.0,0,24,24,24,24,24,24,24,24,24,24,24,24,24,24,20,20,20,20,20,20,20,16,12,2,28403,26476,26239,25986,25753,25343,25098,24918,24691,24397,24130,23868,23522,23200,23200,22866,22594,22335,21675,21377,20413,19911,18088,Wädenswil,exact,2025,18600.0,20700.0,13700.0,"SBB, SOB",SBB,17300.0,19700.0,11900.0,15700.0,17300.0,12000.0,17900.0,20000.0,13300.0,18300.0,20500.0,13300.0,18600.0,20700.0,13700.0
,,Sargans,CH,SG,47.04496,9.44506,55.0,0,24,22,22,20,16,20,20,20,20,20,20,20,20,20,16,16,16,16,16,16,12,12,16,2,7274,6720,6654,6582,6522,6411,6329,6271,6225,6188,6151,6125,6083,6043,6043,5993,5936,5889,5785,5742,5606,5549,4807,Sargans,exact,2025,16000.0,16400.0,14800.0,"SBB, SOB, Thurbo",SBB,11300.0,12300.0,9100.0,11400.0,11800.0,10700.0,11600.0,12200.0,10100.0,12300.0,12800.0,11200.0,16000.0,16400.0,14800.0
,,Wil SG,CH,SG,47.46241324276,9.04099305047,45.0,0,24,18,18,18,18,18,18,18,18,16,16,16,20,20,20,18,18,18,18,18,18,14,10,2,27860,25736,25486,25210,24980,24553,24239,24018,23842,23700,23560,23460,23297,23146,23146,22953,22737,22555,22159,21994,21474,21252,18411,Wil SG,exact,2025,18300.0,20000.0,14300.0,"SBB, Thurbo",SBB,,,,15400.0,16800.0,12300.0,17500.0,19200.0,13700.0,18100.0,19900.0,14200.0,18300.0,20000.0,14300.0
,,Schaffhausen,CH,SH,47.698473,8.632496,36.0,0,24,18,18,18,18,18,18,18,18,18,18,18,18,18,18,18,18,16,16,16,12,10,14,4,39620,39090,38961,39357,38666,37824,37283,36889,36552,36393,36109,35851,35437,35251,35251,34969,34602,34240,33582,33425,32742,32773,30953,Schaffhausen,exact,2025,25100.0,27600.0,19400.0,"SBB, SBB GmbH, Thurbo",SBB,18900.0,21500.0,13200.0,17900.0,19400.0,14400.0,23100.0,25200.0,18200.0,24400.0,26900.0,18700.0,25100.0,27600.0,19400.0
,,Neuhausen,CH,SH,47.683674,8.624908,44.0,0,24,16,16,16,16,16,16,16,16,16,16,16,16,16,16,16,16,16,16,16,12,8,8,2,11490,11336,11298,11413,11213,10969,10812,10698,10600,10554,10472,10397,10277,10223,10223,10141,10034,9929,9739,9693,9495,9504,8976,Neuhausen,exact,2025,1900.0,2100.0,1600.0,"SBB, Thurbo",SBB,1500.0,1700.0,1100.0,1500.0,1600.0,1200.0,1700.0,1900.0,1400.0,1900.0,2100.0,1500.0,1900.0,2100.0,1600.0
,,Lenzburg,CH,AG,47.39119975545,8.17039288935,20.0,0,24,16,16,16,12,12,12,12,12,12,12,12,12,12,12,12,12,12,12,8,8,8,4,2,12515,11557,11434,11321,11184,10943,10818,10679,10552,10435,10324,10208,10057,9928,9928,9791,9652,9513,9232,9103,8760,8551,7062,Lenzburg,exact,2025,27600.0,31500.0,18900.0,"SBB, SOB",SBB,23400.0,26800.0,15700.0,22500.0,25100.0,16300.0,26000.0,29500.0,18100.0,27400.0,31300.0,18700.0,27600.0,31500.0,18900.0
,,Bülach,CH,ZH,47.524156,8.536114,17.0,0,24,14,14,14,14,14,14,14,14,14,14,14,12,12,12,12,16,12,12,12,10,10,14,2,26674,24865,24642,24405,24186,23801,23571,23401,23188,22912,22662,22415,22091,21788,21788,21475,21219,20976,20356,20077,19171,18700,16987,Bülach,exact,2025,15600.0,18300.0,9500.0,"SBB, Thurbo",SBB,13900.0,16300.0,8500.0,13100.0,15000.0,8400.0,15100.0,17600.0,9400.0,15100.0,17700.0,9400.0,15600.0,18300.0,9500.0
,,Baar,CH,ZG,47.195286,8.522758,18.0,0,24,12,12,12,12,12,12,12,12,12,12,12,12,12,8,8,8,8,8,8,8,4,4,2,27479,25680,25449,25196,24973,24711,24451,24264,24047,23896,23629,23351,23010,22624,22624,22253,21962,21685,20891,20796,20063,19293,14541,Baar,exact,2025,9100.0,10800.0,5500.0,"SBB, SOB",SBB,8900.0,10700.0,5000.0,7600.0,8800.0,5000.0,8700.0,10100.0,5400.0,8800.0,10300.0,5600.0,9100.0,10800.0,5500.0
,,Visp,CH,VS,46.29402913541,7.88146547575,119.0,4,20,20,20,20,20,16,16,16,20,20,16,16,16,16,16,16,16,16,16,16,4,8,12,5,9456,8765,8672,8609,8483,8284,8190,8081,8012,7975,7918,7865,7784,7693,7693,7583,7460,7351,7128,7031,6761,6524,5163,Visp,exact,2025,26600.0,26400.0,27200.0,"BLS, MGB, RegionAlps, SBB",SBB,20600.0,20000.0,21900.0,22200.0,21400.0,23800.0,25700.0,25300.0,26400.0,25300.0,25400.0,25100.0,26600.0,26400.0,27200.0
,,Bellinzona,CH,TI,46.195432,9.029828,97.0,0,20,20,20,20,20,20,20,16,16,16,16,20,20,20,16,16,16,16,16,16,16,16,12,4,33211,32351,32223,32065,31959,31629,31464,35121,35171,35357,35393,44325,44021,43823,43823,43344,42733,42144,41991,41618,40310,39432,33925,Bellinzona,exact,2025,20700.0,21900.0,17900.0,"SBB, SOB",SBB,16000.0,16900.0,14000.0,18400.0,19200.0,16700.0,19300.0,20300.0,17100.0,18600.0,19900.0,15600.0,20700.0,21900.0,17900.0
,,Amriswil,CH,TG,47.55044972123,9.30222720093,60.0,0,20,20,20,20,20,16,16,16,16,8,8,8,8,8,8,8,8,8,8,8,12,12,8,2,16543,15185,15008,14856,14643,14367,14184,14032,13866,13713,13581,13427,13265,13081,13081,12910,12708,12498,12142,11994,11623,11403,9253,Amriswil,exact,2025,3200.0,3600.0,2400.0,"SBB, Thurbo",SBB,2800.0,3100.0,2100.0,2900.0,3300.0,2200.0,3200.0,3600.0,2300.0,3200.0,3500.0,2500.0,3200.0,3600.0,2400.0
,,Rapperswil SG,CH,SG,47.224636,8.816529,34.0,0,20,20,20,20,20,20,20,20,20,20,20,20,20,20,20,20,20,20,20,20,16,20,10,2,31942,29507,29220,28903,28640,28150,27791,27537,27335,27173,27011,26897,26711,26537,26537,26316,26068,25859,25405,25217,24620,24366,21108,Rapperswil SG,exact,2025,25300.0,27000.0,21400.0,"SBB, SOB",SBB,,,,20400.0,21600.0,17500.0,23000.0,24400.0,19700.0,24600.0,25900.0,21600.0,25300.0,27000.0,21400.0
,,Biel/Bienne,CH,BE,47.13289787087,7.24291060323,69.0,0,20,18,18,18,18,18,18,18,18,18,18,18,26,26,26,26,26,26,24,24,24,18,12,5,58336,56727,56463,56336,55932,55296,55085,54856,54664,54428,54225,53983,53508,53084,53084,52656,52200,51802,51236,50976,50333,49940,48295,Biel/Bienne,exact,2025,48400.0,53200.0,37700.0,"BLS, SBB",SBB,47600.0,53700.0,33900.0,42100.0,46000.0,32800.0,46100.0,50800.0,35400.0,47300.0,52300.0,36100.0,48400.0,53200.0,37700.0
,,Solothurn,CH,SO,47.20419250289,7.54268921098,52.0,0,20,18,18,18,18,14,14,14,14,14,14,14,18,18,18,18,18,18,18,18,18,12,6,2,18090,17207,17090,17028,16855,16594,16467,16304,16174,16053,15949,15832,15655,15496,15496,15362,15236,15101,14852,14798,14569,14471,12806,Solothurn,exact,2025,15600.0,17100.0,12300.0,"BLS, SBB",SBB,16300.0,18300.0,11700.0,13900.0,15100.0,11000.0,15300.0,16900.0,11800.0,15800.0,17500.0,12000.0,15600.0,17100.0,12300.0
,,Neuchâtel,CH,NE,46.99672679258,6.93570169412,88.0,0,20,14,14,14,14,14,14,14,14,14,14,14,20,20,20,20,20,20,20,20,20,12,12,4,45500,45045,44993,45207,44898,44465,44363,44294,44446,44535,44816,44968,44852,44655,44655,44422,43957,43612,43225,43043,42418,41996,39290,Neuchâtel,exact,2025,29300.0,32600.0,22000.0,"BLS, SBB, TPF, transN",SBB,25400.0,28800.0,17900.0,24600.0,26900.0,19100.0,28200.0,31200.0,21500.0,29400.0,32700.0,22000.0,29300.0,32600.0,22000.0
,,Turgi,CH,AG,47.49175731954,8.25345864571,20.0,0,20,12,12,12,12,12,12,12,12,12,12,12,12,12,12,12,12,12,12,12,12,12,4,2,8798,7312,7234,7163,7076,6924,6844,6757,6676,6602,6532,6459,6363,6282,6282,6195,6107,6336,6149,6063,5834,5410,2291,Turgi,exact,2025,6900.0,8100.0,4000.0,SBB,SBB,6300.0,7600.0,3200.0,5600.0,6400.0,3500.0,6600.0,7700.0,4100.0,7600.0,9200.0,4100.0,6900.0,8100.0,4000.0
,,Renens VD,CH,VD,46.53704246691,6.57893533809,136.0,0,16,24,24,8,8,8,8,8,8,8,8,8,8,8,8,8,4,4,4,4,4,8,0,4,23965,22086,21860,21642,21408,21017,20828,20621,20376,20225,20073,19863,19574,19271,19271,18966,18586,18373,17755,17419,16554,15971,13449,Renens VD,exact,2025,47400.0,51800.0,37800.0,SBB,SBB,18300.0,22500.0,8900.0,20000.0,23200.0,12600.0,22600.0,26700.0,13200.0,25100.0,29800.0,14600.0,47400.0,51800.0,37800.0
,,Aigle,CH,VD,46.31685541861,6.96368321186,169.0,0,16,16,16,12,12,12,12,12,12,12,8,8,8,8,8,8,8,8,8,8,8,12,16,2,12775,11773,11653,11537,11412,11204,11103,10992,10862,10782,10700,10588,10434,10273,10273,10110,9908,9794,9465,9285,8825,8514,7170,Aigle,exact,2025,11500.0,12500.0,9400.0,SBB,SBB,6800.0,7700.0,5000.0,9100.0,9700.0,7700.0,10600.0,11400.0,8800.0,11200.0,11900.0,9400.0,11500.0,12500.0,9400.0
,,Montreux,CH,VD,46.43588434114,6.91044012131,158.0,0,16,16,16,12,12,12,12,12,12,12,8,8,8,8,8,8,8,8,8,8,8,12,16,2,30032,27678,27395,27121,26828,26338,26102,25841,25535,25346,25155,24892,24530,24150,24150,23767,23291,23024,22250,21829,20746,20014,16855,Montreux,exact,2025,19500.0,19900.0,18700.0,"MOB, SBB",SBB,15800.0,16500.0,14300.0,15400.0,15400.0,15400.0,17300.0,17600.0,16500.0,18000.0,18100.0,17800.0,19500.0,19900.0,18700.0
,,Vevey,CH,VD,46.46300181067,6.84344559824,151.0,0,16,16,16,14,14,14,14,14,16,16,10,10,10,10,10,10,8,8,8,8,8,12,16,2,22544,20777,20564,20359,20139,19771,19594,19398,19168,19027,18883,18686,18414,18129,18129,17842,17484,17284,16702,16386,15573,15024,12652,Vevey,exact,2025,27400.0,30400.0,20600.0,"MOB, SBB",SBB,21000.0,24100.0,14100.0,21500.0,24000.0,15700.0,24200.0,26700.0,18600.0,25900.0,28800.0,19500.0,27400.0,30400.0,20600.0
,,Tenero,CH,TI,46.1774674587,8.85022618523,123.0,0,16,16,16,16,16,16,16,0,0,0,0,0,0,0,0,0,0,0,0,0,0,0,0,2,3530,3439,3425,3408,3397,3362,3344,3333,3338,3355,3359,3365,3342,3327,3327,3291,3244,3200,3188,3160,3060,2994,2576,Tenero,exact,2025,2500.0,2800.0,2000.0,"SBB, SOB",SBB,1500.0,1600.0,1300.0,2400.0,2600.0,2000.0,3300.0,3600.0,2500.0,2500.0,2700.0,1900.0,2500.0,2800.0,2000.0
,,Cadenazzo,CH,TI,46.15261998875,8.94169889979,114.0,0,16,16,16,16,16,16,16,0,0,0,0,8,8,8,8,8,8,8,8,8,8,0,0,2,3233,3149,3137,3121,3111,3079,3063,3052,3057,3073,3076,3082,3061,3047,3047,3014,2971,2930,2920,2894,2803,2742,2359,Cadenazzo,exact,2025,2700.0,3100.0,1800.0,"SBB, SOB",SBB,1600.0,1800.0,1100.0,1800.0,2000.0,1300.0,2500.0,2800.0,1800.0,2600.0,3000.0,1600.0,2700.0,3100.0,1800.0
,,Lugano,CH,TI,46.005411,8.946552,113.0,0,16,16,16,16,18,18,18,12,14,12,10,8,8,8,6,6,6,6,6,8,8,16,12,4,65981,64272,64019,63705,63495,62839,62512,62300,62389,62718,62783,62901,62470,62189,62189,61510,60643,59807,59590,59060,57204,55958,48144,Lugano,exact,2025,32300.0,35600.0,25000.0,"RhB, SBB",SBB,16300.0,18600.0,11100.0,25100.0,27400.0,19800.0,30500.0,33300.0,24000.0,30600.0,34200.0,22800.0,32300.0,35600.0,25000.0
,,Jegenstorf,CH,BE,47.04760999401,7.50777999617,76.0,0,16,16,16,16,16,8,8,8,8,8,8,8,8,8,8,8,8,8,8,8,8,8,4,2,6103,5935,5908,5894,5852,5785,5763,5739,5719,5695,5673,5648,5598,5554,5554,5509,5462,5420,5361,5333,5266,5225,5053,,unmatched,,,,,,,,,,,,,,,,,,,,,
,,Bätterkinden,CH,BE,47.13001999473,7.53440000642,71.0,0,16,16,16,16,16,8,8,8,8,8,8,8,8,8,8,8,8,8,8,8,8,8,4,2,3540,3442,3426,3419,3394,3355,3343,3329,3317,3303,3290,3276,3247,3221,3221,3195,3168,3143,3109,3093,3054,3030,2931,,unmatched,,,,,,,,,,,,,,,,,,,,,
,,Lohn-Lüterkofen,CH,SO,47.16299000154,7.52695999344,67.0,0,16,16,16,16,16,8,8,8,8,8,8,8,8,8,8,8,8,8,8,8,8,8,4,2,3194,3038,3017,3007,2976,2930,2908,2879,2856,2834,2816,2795,2764,2736,2736,2712,2690,2666,2622,2613,2572,2555,2261,,unmatched,,,,,,,,,,,,,,,,,,,,,
,,Landquart,CH,GR,46.965902,9.554424,64.0,0,16,16,16,16,16,16,16,16,16,16,16,16,16,16,12,12,12,12,12,12,12,12,12,2,9602,9332,9287,9247,9191,9086,9033,8976,8928,8899,8877,8862,8820,8787,8787,8746,8699,8675,8607,8544,8425,8333,7335,Landquart,exact,2025,19100.0,18400.0,20600.0,"RhB, SBB, SOB, Thurbo",SBB,14000.0,13900.0,14300.0,15700.0,15200.0,16800.0,17100.0,16700.0,18100.0,18600.0,18200.0,19500.0,19100.0,18400.0,20600.0
,,Biberist RBS,CH,SO,47.1838600066,7.55583057208,63.0,0,16,16,16,16,16,8,8,8,8,8,8,8,8,8,8,8,8,8,8,8,8,8,4,2,10030,9540,9475,9441,9345,9200,9130,9039,8967,8900,8843,8778,8680,8592,8592,8517,8447,8372,8234,8204,8077,8023,7100,,unmatched,,,,,,,,,,,,,,,,,,,,,
,,Gossau SG,CH,SG,47.41183157856,9.25305069333,63.0,0,16,16,16,16,12,16,16,16,16,16,16,16,20,20,20,16,16,16,16,16,16,12,8,2,20582,19013,18827,18624,18454,18139,17907,17743,17613,17508,17405,17331,17211,17099,17099,16957,16797,16662,16370,16248,15864,15700,13601,Gossau SG,exact,2025,7700.0,8100.0,6600.0,"SBB, Thurbo",SBB,8200.0,9100.0,6300.0,6800.0,6900.0,6400.0,7200.0,7600.0,6100.0,7500.0,7800.0,6900.0,7700.0,8100.0,6600.0
,,Andelfingen,CH,ZH,47.593636,8.677018,37.0,0,16,12,12,12,12,12,12,12,12,12,12,12,12,12,12,12,12,12,12,12,8,4,4,2,3946,3678,3646,3610,3578,3521,3487,3462,3430,3390,3353,3316,3268,3223,3223,3177,3139,3103,3011,2970,2836,2766,2513,Andelfingen,exact,2025,2800.0,3200.0,2000.0,"SBB, Thurbo",SBB,2300.0,2700.0,1500.0,2200.0,2500.0,1500.0,2500.0,2900.0,1700.0,2900.0,3300.0,1900.0,2800.0,3200.0,2000.0
,,Genève-Aéroport,CH,GE,46.2325385344,6.1119855726,172.0,2,16,10,8,10,10,10,10,10,12,12,10,10,12,12,12,12,12,12,12,12,12,10,0,2,14021,13100,13000,12969,12806,12555,12441,12365,12311,12197,12094,11954,11837,11658,11658,11463,11309,11246,11069,10894,10516,10226,8689,Genève-Aéroport,exact,2025,16000.0,15500.0,17100.0,SBB,SBB,15900.0,16300.0,15100.0,12100.0,11900.0,12500.0,15100.0,14600.0,16200.0,16300.0,15800.0,17500.0,16000.0,15500.0,17100.0
,,Coppet,CH,VD,46.31739357076,6.18782738095,176.0,0,16,8,8,8,8,8,8,8,8,8,8,8,8,8,8,8,0,0,0,0,0,8,0,2,3590,3309,3275,3242,3207,3148,3120,3089,3052,3030,3007,2976,2932,2887,2887,2841,2784,2752,2660,2609,2480,2392,2015,Coppet,exact,2025,7600.0,8900.0,4900.0,SBB,SBB,6400.0,7900.0,3000.0,6900.0,7900.0,4500.0,7800.0,9100.0,4900.0,7700.0,8900.0,5000.0,7600.0,8900.0,4900.0
,,Gland,CH,VD,46.41998647126,6.26913983363,165.0,0,16,8,8,8,8,8,8,8,8,8,8,8,8,8,8,8,4,4,4,4,4,8,0,2,15692,14462,14314,14171,14018,13762,13638,13502,13342,13244,13144,13006,12817,12619,12619,12419,12170,12031,11626,11406,10840,10458,8807,Gland,exact,2025,7400.0,9000.0,4000.0,SBB,SBB,5500.0,7000.0,2300.0,5800.0,7000.0,3200.0,6700.0,8200.0,3300.0,6900.0,8400.0,3600.0,7400.0,9000.0,4000.0
,,Rolle,CH,VD,46.46274581606,6.33640380762,160.0,0,16,8,8,8,8,8,8,8,8,8,8,8,8,8,8,8,0,0,0,0,0,0,0,2,7216,6650,6582,6516,6446,6328,6271,6209,6135,6090,6044,5981,5894,5803,5803,5711,5596,5532,5346,5245,4985,4809,4050,Rolle,exact,2025,4500.0,5300.0,2800.0,SBB,SBB,3700.0,4600.0,1800.0,3900.0,4600.0,2500.0,4400.0,5200.0,2500.0,4600.0,5400.0,2700.0,4500.0,5300.0,2800.0
,,Zürich Wipkingen,CH,ZH,47.391855,8.528994,3.0,0,16,0,0,0,0,0,0,0,0,0,0,0,0,0,0,0,0,0,0,0,0,0,0,2,17248,0,0,0,0,0,0,0,0,0,0,0,0,0,0,0,0,0,0,0,0,0,0,Zürich Wipkingen,exact,2025,2500.0,2700.0,2100.0,SBB,SBB,2400.0,2700.0,1700.0,2100.0,2300.0,1700.0,2400.0,2700.0,1800.0,1900.0,2100.0,1300.0,2500.0,2700.0,2100.0
,,Fribourg/Freiburg,CH,FR,46.80314817219,7.15104688334,83.0,4,14,20,16,16,16,16,14,14,14,14,14,14,14,14,14,14,12,8,8,8,8,12,8,4,43006,39951,39525,39241,38660,37859,37338,36850,36429,36082,35670,35312,34808,34346,34346,33695,32990,32228,30920,30397,28746,27551,21235,Fribourg/Freiburg,exact,2025,30800.0,34600.0,22100.0,"BLS, SBB, TPF",SBB,20100.0,23000.0,13600.0,22300.0,24400.0,17400.0,29600.0,33400.0,20900.0,30400.0,34600.0,21000.0,30800.0,34600.0,22100.0
,,Liestal,CH,BL,47.48446117215,7.7313674807,53.0,0,12,16,16,16,16,12,12,12,12,12,12,12,12,12,12,12,12,16,16,16,16,8,8,2,16586,16065,15990,15966,15834,15600,15515,15417,15338,15267,15208,15134,15007,14905,14905,14765,14652,14590,14455,14370,14099,13932,11719,Liestal,exact,2025,16200.0,18600.0,11000.0,"SBB, SOB",SBB,17500.0,20500.0,10800.0,15800.0,17800.0,11200.0,16000.0,18500.0,10400.0,16000.0,18600.0,10100.0,16200.0,18600.0,11000.0
,,Brig,CH,VS,46.3194227058,7.9880947394,128.0,2,12,14,14,14,14,12,12,12,14,12,10,10,10,10,10,10,10,10,10,10,10,12,14,5,15580,14440,14287,14184,13976,13649,13493,13314,13200,13140,13045,12957,12824,12674,12674,12492,12291,12111,11743,11584,11139,10748,8506,Brig,exact,2025,21200.0,21400.0,20900.0,"BLS, MGB, RegionAlps, SBB",SBB,16700.0,17000.0,16100.0,17500.0,17500.0,17500.0,20800.0,20700.0,21200.0,20900.0,21000.0,20600.0,21200.0,21400.0,20900.0
,,Rorschach,CH,SG,47.47800197544,9.5051412874,78.0,0,12,14,14,10,10,10,8,8,8,8,8,8,8,8,8,8,8,8,8,8,8,8,10,2,11103,10256,10156,10047,9955,9785,9660,9572,9501,9445,9389,9349,9284,9224,9224,9147,9061,8988,8831,8765,8558,8469,7337,Rorschach,exact,2025,7200.0,7400.0,6800.0,"SBB, SOB, Thurbo",SBB,4800.0,5100.0,4300.0,5500.0,5500.0,5200.0,6000.0,6200.0,5500.0,6400.0,6600.0,5900.0,7200.0,7400.0,6800.0
,,Romont FR,CH,FR,46.69350826125,6.91181142012,101.0,0,12,12,12,12,12,12,12,12,12,12,12,12,12,12,12,12,12,6,6,6,6,10,6,2,6553,6088,6023,5980,5891,5769,5690,5615,5551,5498,5435,5381,5304,5234,5234,5134,5027,4911,4712,4632,4380,4198,3236,Romont FR,exact,2025,5700.0,6200.0,4600.0,"SBB, TPF",SBB,,,,3800.0,4200.0,2800.0,5100.0,5700.0,3800.0,5500.0,6100.0,4100.0,5700.0,6200.0,4600.0
,,Altdorf UR,CH,UR,46.875175,8.631593,63.0,0,12,12,12,12,12,12,8,0,0,0,0,0,0,0,0,0,0,0,0,0,0,0,0,2,10793,10384,10325,10290,10198,10033,9960,9899,9868,9795,9759,9718,9672,9681,9681,9643,9596,9513,9500,9454,9433,9466,9032,Altdorf UR,exact,2025,2400.0,2400.0,2300.0,"SBB, SOB",SBB,,,,1900.0,1900.0,1800.0,2200.0,2200.0,2100.0,2400.0,2600.0,2100.0,2400.0,2400.0,2300.0
,,Ziegelbrücke,CH,SG,47.136745,9.059908,39.0,0,12,10,10,10,10,10,10,10,10,10,10,10,10,10,10,10,10,10,10,10,8,6,12,2,4633,4280,4238,4192,4154,4083,4031,3994,3965,3941,3918,3901,3874,3849,3849,3817,3781,3751,3685,3657,3571,3534,3062,Ziegelbrücke,exact,2025,12000.0,12400.0,11100.0,"SBB, SOB",SBB,9400.0,10100.0,8000.0,9600.0,10000.0,8800.0,11500.0,12100.0,10100.0,11500.0,12100.0,10100.0,12000.0,12400.0,11100.0
,,Interlaken West,CH,BE,46.68262798037,7.8514531376,109.0,4,12,8,12,12,12,8,8,8,8,8,8,8,8,8,8,8,8,8,8,8,12,8,8,2,3851,3043,3634,3626,3600,3390,3377,3363,3351,3337,3324,3309,3280,3254,3254,3228,3200,3175,3141,3125,3239,3061,2961,Interlaken West,exact,2025,6700.0,6900.0,6400.0,"BLS, SBB",BLS,6300.0,6700.0,5500.0,5000.0,5200.0,4700.0,6300.0,6500.0,5900.0,6400.0,6600.0,5900.0,6700.0,6900.0,6400.0
,,Yverdon-les-Bains,CH,VD,46.781545187,6.64094400151,107.0,0,12,8,8,8,8,8,8,8,8,8,8,8,16,16,16,16,16,16,16,16,16,8,8,2,33809,31159,30840,30532,30202,29651,29384,29091,28746,28534,28319,28022,27615,27188,27188,26757,26220,25920,25048,24574,23355,22531,18974,Yverdon-les-Bains,exact,2025,19300.0,21900.0,13500.0,SBB,SBB,16800.0,19800.0,10200.0,16900.0,19100.0,11800.0,18600.0,20900.0,13300.0,19300.0,22300.0,12600.0,19300.0,21900.0,13500.0
,,Langenthal,CH,BE,47.2173028715,7.78471513555,46.0,0,12,8,8,8,8,8,8,8,8,8,8,8,8,8,8,8,8,8,8,8,8,12,12,2,16768,16305,16230,16193,16077,15894,15833,15768,15713,15645,15586,15517,15380,15258,15258,15135,15004,14890,14727,14653,14468,14355,13882,Langenthal,exact,2025,10500.0,12000.0,7300.0,"BLS, SBB, SOB",SBB,11700.0,13500.0,7500.0,9900.0,11100.0,7000.0,10400.0,11900.0,7100.0,10200.0,11600.0,7100.0,10500.0,12000.0,7300.0
,,Rotkreuz,CH,ZG,47.142037,8.431043,31.0,0,12,4,4,4,4,4,4,16,4,4,4,4,4,4,4,4,4,4,4,4,4,8,0,2,12598,11773,11667,11551,11449,11329,11210,11124,11025,10955,10833,10706,10549,10372,10372,10202,10069,9942,9578,9534,9198,8845,6666,Rotkreuz,exact,2025,15300.0,17800.0,9700.0,"SBB, SOB",SBB,14400.0,17300.0,8000.0,13200.0,15200.0,8400.0,15000.0,17000.0,10400.0,15600.0,17900.0,10600.0,15300.0,17800.0,9700.0
,,Burgdorf,CH,BE,47.0607007264,7.62169447355,64.0,0,10,12,12,12,12,12,12,12,12,12,12,12,12,12,12,12,12,12,12,12,12,12,14,2,17855,17362,17281,17243,17119,16924,16860,16790,16731,16659,16597,16522,16377,16247,16247,16116,15977,15855,15682,15602,15405,15285,14782,Burgdorf,exact,2025,16000.0,18100.0,11200.0,"BLS, SBB, SOB",SBB,16300.0,18700.0,10900.0,14200.0,15900.0,10200.0,15200.0,17200.0,10900.0,15800.0,17700.0,11400.0,16000.0,18100.0,11200.0
,,St. Margrethen SG,CH,SG,47.45321599374,9.63826192024,76.0,0,10,10,10,6,6,6,6,4,4,4,4,4,4,4,4,4,4,4,4,4,4,4,4,2,7314,6757,6691,6618,6558,6446,6364,6305,6259,6222,6185,6159,6116,6076,6076,6026,5969,5921,5817,5774,5637,5579,4833,St. Margrethen SG,exact,2025,4200.0,4500.0,3500.0,"SBB, SOB, Thurbo",SBB,,,,2900.0,3100.0,2600.0,4200.0,4600.0,3400.0,3800.0,4100.0,3100.0,4200.0,4500.0,3500.0
,,Buchs SG,CH,SG,47.169564,9.478521,67.0,0,10,10,10,6,4,6,6,6,6,6,6,6,6,6,6,6,6,6,6,6,6,6,6,2,15537,14353,14213,14059,13931,13693,13518,13394,13296,13217,13139,13083,12993,12908,12908,12801,12680,12578,12358,12266,11975,11852,10267,Buchs SG,exact,2025,5600.0,6200.0,4300.0,"SBB, SOB, Thurbo",SBB,4700.0,5300.0,3200.0,4300.0,4600.0,3400.0,5600.0,6200.0,4300.0,4900.0,5300.0,3800.0,5600.0,6200.0,4300.0
,,La Chaux-de-Fonds,CH,NE,47.09837435549,6.82598272105,118.0,0,10,8,8,8,8,8,8,8,8,8,8,8,6,6,6,6,6,6,6,6,6,10,8,2,20962,18677,18656,18745,18617,18437,24526,24488,24572,24621,24777,24861,22317,22219,22219,22103,21872,21700,21508,21417,35177,34826,32582,La Chaux-de-Fonds,exact,2025,10200.0,11900.0,6300.0,"BLS, SBB",SBB,8400.0,9800.0,5400.0,8700.0,10100.0,5600.0,9900.0,11500.0,6200.0,10300.0,12100.0,6400.0,10200.0,11900.0,6300.0
,,Kreuzlingen,CH,TG,47.65255276655,9.16908041834,68.0,12,8,16,16,12,12,12,12,12,12,14,12,12,12,12,12,12,12,12,12,12,10,10,8,2,21881,19282,19056,17684,17431,17102,16884,16704,16505,16928,21555,21311,21053,20762,20762,20490,20170,19836,19272,19036,18448,18099,14687,Kreuzlingen,exact,2025,7500.0,8100.0,6100.0,"SBB, Thurbo",SBB,7400.0,8100.0,5600.0,6300.0,6800.0,5300.0,7400.0,7900.0,6200.0,7600.0,8200.0,6200.0,7500.0,8100.0,6100.0
,,St-Maurice,CH,VS,46.21636950284,7.00204389825,174.0,0,8,10,10,6,6,6,6,6,4,4,4,4,4,4,4,4,4,4,4,4,4,4,12,2,5099,4726,4676,4642,4574,4467,4416,4357,4320,4300,4269,4241,4197,4148,4148,4088,4022,3964,3843,3791,3645,3518,2784,St-Maurice,exact,2025,7000.0,8000.0,4700.0,"RegionAlps, SBB",SBB,5000.0,6100.0,2800.0,5800.0,6600.0,3900.0,7100.0,8200.0,4500.0,7400.0,8500.0,4800.0,7000.0,8000.0,4700.0
,,Martigny,CH,VS,46.10583120719,7.07912412849,162.0,0,8,10,10,8,8,8,8,8,12,12,8,8,8,8,8,8,8,8,8,8,8,12,16,2,24256,22481,22243,22083,21759,21250,21008,20728,20551,20457,20309,20173,19966,19732,19732,19449,19135,18855,18282,18036,17342,16733,13243,Martigny,exact,2025,12200.0,12600.0,11300.0,"RegionAlps, SBB",SBB,8200.0,9300.0,5900.0,8900.0,9500.0,7400.0,10100.0,10800.0,8500.0,10900.0,11600.0,9300.0,12200.0,12600.0,11300.0
,,Bex,CH,VD,46.2514645823,7.00066990236,186.0,0,8,8,8,4,4,4,4,4,4,4,4,4,4,4,4,4,4,4,4,4,4,4,12,2,9590,8838,8748,8661,8567,8411,8335,8252,8154,8094,8033,7949,7833,7712,7712,7590,7438,7352,7105,6971,6625,6391,5382,Bex,exact,2025,3400.0,3800.0,2600.0,SBB,SBB,1800.0,2100.0,1200.0,1900.0,2200.0,1300.0,2400.0,2800.0,1700.0,2700.0,3000.0,1800.0,3400.0,3800.0,2600.0
,,Lancy-Pont-Rouge,CH,GE,46.1859452998,6.12494699563,183.0,0,8,8,8,8,8,8,8,8,0,0,0,0,0,0,0,0,0,0,0,0,0,0,0,2,39665,18530,18390,24461,36229,35518,35195,34981,17414,17254,17107,16910,16744,16490,16490,16216,15997,15908,15658,15410,14876,14465,12291,Lancy-Pont-Rouge,exact,2025,8700.0,11400.0,2800.0,SBB,SBB,1100.0,1600.0,220.0,4900.0,6300.0,1700.0,7300.0,9400.0,2600.0,7700.0,10100.0,2500.0,8700.0,11400.0,2800.0
,,Genève-Eaux-Vives,CH,GE,46.20144540654,6.16656958816,182.0,0,8,8,8,8,8,8,8,8,0,0,0,0,0,0,0,0,0,0,0,0,0,0,0,2,34805,38432,41954,38050,45919,45017,44609,44337,0,0,0,0,0,0,0,0,0,0,0,0,0,0,0,Genève-Eaux-Vives,exact,2025,9900.0,11700.0,6200.0,SBB,SBB,,,,6500.0,7700.0,3700.0,8400.0,9900.0,5100.0,8500.0,10100.0,5100.0,9900.0,11700.0,6200.0
,,Villeneuve VD,CH,VD,46.39837150643,6.92700310805,171.0,0,8,8,8,4,4,4,4,4,0,0,0,0,0,0,0,0,0,0,0,0,0,0,0,2,6775,6244,6180,6118,6052,5942,5888,5829,5760,5718,5675,5615,5534,5448,5448,5362,5254,5194,5019,4924,4680,4515,3802,Villeneuve VD,exact,2025,4500.0,4900.0,3500.0,SBB,SBB,,,,3000.0,3400.0,2000.0,3400.0,3900.0,2500.0,3800.0,4300.0,2800.0,4500.0,4900.0,3500.0
,,Allaman,CH,VD,46.47575352081,6.39969707975,156.0,0,8,8,8,8,8,8,8,8,8,8,8,8,8,8,8,8,0,0,0,0,0,0,0,2,482,445,440,436,431,423,419,415,410,407,404,400,394,388,388,382,374,370,357,351,333,322,271,Allaman,exact,2025,4900.0,5700.0,3000.0,SBB,SBB,3400.0,4100.0,1700.0,4100.0,4700.0,2600.0,5000.0,5800.0,2900.0,5200.0,6200.0,3100.0,4900.0,5700.0,3000.0
,,Sion,CH,VS,46.22755319641,7.35919703457,145.0,0,8,8,8,8,8,8,8,8,12,12,8,8,8,8,8,8,8,8,8,8,6,14,16,2,40826,37840,37438,37169,36624,35767,35359,34888,34590,34433,34183,33954,33606,33212,33212,32736,32208,31737,30772,30357,29189,28165,22291,Sion,exact,2025,14300.0,16000.0,10400.0,"RegionAlps, SBB",SBB,11600.0,13400.0,7600.0,11700.0,12900.0,8700.0,13300.0,14900.0,9700.0,13800.0,15500.0,10100.0,14300.0,16000.0,10400.0
,,Lavorgo,CH,TI,46.440687,8.839899,138.0,0,8,8,8,8,8,8,8,4,4,4,4,0,0,0,0,0,0,0,0,0,0,0,0,2,1431,1394,1388,1381,1377,1363,1355,1351,1353,1360,1361,0,0,0,0,0,0,0,0,0,0,0,0,Lavorgo,exact,2025,200.0,210.0,190.0,"SBB, SOB",SBB,90.0,100.0,70.0,170.0,170.0,170.0,190.0,190.0,190.0,200.0,200.0,200.0,200.0,210.0,190.0
,,Sierre/Siders,CH,VS,46.29212156383,7.53282555582,137.0,0,8,8,8,8,8,8,8,8,12,12,8,8,8,8,8,8,8,8,8,8,4,14,16,2,19690,18249,18056,17926,17663,17250,17053,16826,16682,16606,16486,16375,16207,16018,16018,15788,15533,15306,14841,14641,14077,13583,10750,Sierre/Siders,exact,2025,7500.0,8200.0,6000.0,"RegionAlps, SBB",SBB,5900.0,6500.0,4500.0,6100.0,6600.0,5000.0,7100.0,7800.0,5500.0,7300.0,8100.0,5500.0,7500.0,8200.0,6000.0
,,Faido,CH,TI,46.483027,8.790379,135.0,0,8,8,8,8,8,8,8,4,4,4,4,8,8,8,8,8,8,8,8,8,8,8,4,2,1430,1393,1388,1381,1376,1362,1355,1350,1352,1359,1361,2727,2709,2696,2696,2667,2629,2593,2584,2561,2480,2426,2087,Faido,exact,2025,280.0,290.0,240.0,"SBB, SOB",SBB,180.0,190.0,140.0,260.0,260.0,240.0,280.0,280.0,260.0,280.0,290.0,260.0,280.0,290.0,240.0
,,Mendrisio,CH,TI,45.86910860805,8.97861091962,133.0,0,8,8,8,8,8,8,8,4,8,4,0,0,0,0,0,0,0,0,0,0,0,8,4,2,15658,15252,15192,15118,15068,14912,14835,14784,14806,14884,7450,7464,7413,7379,7379,7299,7196,7097,7071,7008,6788,6640,11425,Mendrisio,exact,2025,9600.0,11500.0,5100.0,SBB,SBB,7500.0,9000.0,4000.0,7700.0,9200.0,4200.0,9700.0,11600.0,5300.0,10200.0,12400.0,5200.0,9600.0,11500.0,5100.0
,,Locarno,CH,TI,46.17242018945,8.80136089926,129.0,0,8,8,8,8,8,8,8,0,0,0,0,4,4,4,4,4,4,4,4,4,4,0,0,4,2688,2619,2608,2596,2587,2560,2547,2538,2542,2555,2558,2563,2545,2534,2534,2506,2471,2437,2428,2406,2331,2280,1962,Locarno,exact,2025,10800.0,11500.0,9300.0,"SBB, SOB",SBB,6300.0,6600.0,5500.0,8800.0,9400.0,7500.0,9400.0,9900.0,8300.0,10600.0,11400.0,9000.0,10800.0,11500.0,9300.0
,,Bodio TI,CH,TI,46.380472,8.906073,126.0,0,8,8,8,8,8,8,8,4,4,4,4,0,0,0,0,0,0,0,0,0,0,0,0,2,934,910,906,902,899,890,885,882,883,888,889,891,884,881,881,871,859,847,844,836,810,792,682,Bodio TI,exact,2025,260.0,300.0,170.0,"SBB, SOB",SBB,,,,230.0,250.0,170.0,250.0,280.0,170.0,270.0,310.0,180.0,260.0,300.0,170.0
,,Ambrì-Piotta,CH,TI,46.510727,8.69072,124.0,0,8,8,8,8,8,8,8,4,4,4,4,0,0,0,0,0,0,0,0,0,0,0,0,2,980,955,951,946,943,933,928,925,927,931,932,934,928,924,924,914,901,888,885,877,850,831,715,Ambrì-Piotta,exact,2025,280.0,280.0,280.0,"SBB, SOB",SBB,120.0,130.0,110.0,230.0,230.0,240.0,280.0,290.0,260.0,280.0,290.0,270.0,280.0,280.0,280.0
,,Minusio,CH,TI,46.17395,8.81938,126.0,0,8,8,8,4,0,0,0,0,0,0,0,0,0,0,0,0,0,0,0,0,0,0,0,2,7653,7455,7426,7389,7365,7289,7251,7226,7237,7275,7282,7296,7246,7214,7214,7135,7034,6937,6912,6851,6635,6491,5584,Minusio,exact,2025,710.0,760.0,590.0,SBB,SBB,,,,,,,,,,620.0,660.0,530.0,710.0,760.0,590.0
,,Gordola,CH,TI,46.17904027241,8.86577329008,121.0,0,8,8,8,8,8,8,8,0,0,0,0,0,0,0,0,0,0,0,0,0,0,0,0,2,5002,4873,4854,4830,4814,4764,4739,4723,4730,4755,4760,4769,4736,4715,4715,4664,4598,4534,4518,4478,4337,4243,3650,Gordola,exact,2025,780.0,880.0,570.0,SBB,SBB,700.0,780.0,520.0,680.0,770.0,470.0,730.0,820.0,520.0,770.0,870.0,540.0,780.0,880.0,570.0
,,Paradiso,CH,TI,45.98937263979,8.94688975243,120.0,0,8,8,8,8,8,8,8,0,0,0,0,0,0,0,0,0,0,0,0,0,0,8,0,2,5021,4891,4872,4848,4832,4782,4757,4741,4748,4773,4778,4787,4754,4733,4733,4681,4615,4551,4535,4495,4353,4258,3664,Paradiso,exact,2025,2500.0,2800.0,1700.0,SBB,SBB,,,,,,,2200.0,2500.0,1600.0,2500.0,2800.0,1700.0,2500.0,2800.0,1700.0
,,Riazzino,CH,TI,46.17533630316,8.88639737366,118.0,0,8,8,8,8,8,8,8,0,0,0,0,0,0,0,0,0,0,0,0,0,0,0,0,2,17036,16595,16529,16448,16394,16225,16140,16085,16109,16193,16210,16241,16129,16057,16057,15882,15658,15442,15386,15249,14770,14448,12430,Riazzino,exact,2025,1200.0,1400.0,780.0,SBB,SBB,650.0,670.0,610.0,860.0,940.0,670.0,990.0,1100.0,710.0,1000.0,1200.0,650.0,1200.0,1400.0,780.0
,,Airolo,CH,TI,46.527412,8.609326,116.0,0,8,8,8,8,8,8,8,4,4,4,4,8,8,8,8,8,8,8,8,8,8,8,4,2,1521,1482,1476,1469,1464,1449,1441,1436,1439,1446,1448,1450,1440,1434,1434,1418,1398,1379,1374,1362,1319,1290,1110,Airolo,exact,2025,580.0,540.0,670.0,"SBB, SOB",SBB,420.0,370.0,510.0,520.0,480.0,610.0,540.0,500.0,630.0,530.0,500.0,610.0,580.0,540.0,670.0
,,Interlaken Ost,CH,BE,46.6904999962,7.86900000435,114.0,2,8,8,8,8,8,6,6,6,6,6,6,6,6,6,6,6,6,6,6,6,8,6,6,2,2407,3042,2423,2417,2400,2542,2532,2522,2513,2502,2493,2482,2460,2440,2440,2421,2400,2382,2355,2343,2160,2296,2220,Interlaken Ost,exact,2025,17700.0,17000.0,19300.0,"BLS, SBB, Zentralbahn",BOB,11500.0,11200.0,12200.0,10700.0,10300.0,11500.0,14900.0,14500.0,15700.0,16000.0,15600.0,17000.0,17700.0,17000.0,19300.0
,,S. Antonino,CH,TI,46.15904913857,8.96952064604,111.0,0,8,8,8,8,8,8,8,0,0,0,0,0,0,0,0,0,0,0,0,0,0,0,0,2,2750,2678,2668,2655,2646,2619,2605,2596,2600,2614,2616,2621,2603,2592,2592,2563,2527,2492,2483,2461,2384,2332,2006,S. Antonino,exact,2025,1300.0,1500.0,780.0,SBB,SBB,530.0,590.0,390.0,1100.0,1300.0,770.0,1200.0,1300.0,740.0,1200.0,1400.0,740.0,1300.0,1500.0,780.0
,,Giubiasco,CH,TI,46.17381273155,9.00360008896,105.0,0,8,8,8,8,8,8,8,4,4,4,4,0,0,0,0,0,0,0,0,0,0,0,0,2,13284,12940,12889,12826,12784,12652,12586,8780,8793,8839,8848,0,0,0,0,0,0,0,0,0,0,0,0,Giubiasco,exact,2025,5700.0,6800.0,3400.0,"SBB, SOB",SBB,6700.0,8100.0,3600.0,4700.0,5500.0,2700.0,5100.0,6100.0,3000.0,5500.0,6500.0,3100.0,5700.0,6800.0,3400.0
,,Göschenen,CH,UR,46.665334,8.589181,105.0,0,8,8,8,8,8,8,8,4,4,4,4,8,8,8,8,8,8,8,8,8,8,8,4,2,478,460,458,456,452,445,441,439,437,434,433,431,429,429,429,427,425,422,421,419,418,420,400,Göschenen,exact,2025,2800.0,2400.0,3600.0,"MGB, SBB, SOB",SBB,1800.0,1600.0,2200.0,2300.0,2100.0,2700.0,2500.0,2200.0,3100.0,2500.0,2200.0,3100.0,2800.0,2400.0,3600.0
,,Castione-Arbedo,CH,TI,46.223701,9.041394,102.0,0,8,8,8,8,8,8,8,4,4,4,4,0,0,0,0,0,0,0,0,0,0,0,0,2,5308,5171,5150,5125,5108,5055,5029,5012,5019,5045,5051,5060,5026,5003,5003,4948,4879,4811,4794,4751,4602,4502,3873,Castione-Arbedo,exact,2025,2600.0,2900.0,2000.0,"SBB, SOB",SBB,930.0,1000.0,660.0,2000.0,2200.0,1500.0,2600.0,2900.0,1900.0,2600.0,2900.0,1900.0,2600.0,2900.0,2000.0
,,Delémont,CH,JU,47.36201270011,7.3500633234,97.0,0,8,8,6,6,6,6,6,6,6,6,6,6,10,10,10,10,10,10,8,8,8,4,4,2,13050,12858,12822,12789,12739,12622,12611,12596,12574,12546,12524,12495,12437,12374,12374,12259,12123,12054,11985,11931,11810,11804,11015,Delémont,exact,2025,7800.0,8800.0,5400.0,SBB,SBB,6900.0,7900.0,4600.0,7300.0,8100.0,5300.0,8100.0,9100.0,5700.0,8000.0,9000.0,5700.0,7800.0,8800.0,5400.0
,,Moutier,CH,BE,47.28067251749,7.38104429627,92.0,0,8,8,8,8,8,8,8,8,8,8,8,8,12,12,12,12,12,12,8,8,8,4,4,2,7479,7273,7239,7223,7171,7089,7062,7033,7008,6978,6952,6921,6860,6806,6806,6751,6693,6641,6569,6536,6453,6403,6192,Moutier,exact,2025,3200.0,3700.0,2100.0,SBB,SBB,3300.0,3800.0,2100.0,2900.0,3300.0,2000.0,3300.0,3800.0,2400.0,3100.0,3500.0,2200.0,3200.0,3700.0,2100.0
,,Biasca,CH,TI,46.351881,8.974337,89.0,0,8,8,8,8,8,8,8,4,4,4,4,8,8,8,8,8,8,8,8,8,8,8,4,2,6376,6211,6187,6156,6136,6073,6041,6020,6029,6061,6067,6079,6037,6010,6010,5944,5860,5780,5759,5707,5528,5408,4652,Biasca,exact,2025,2600.0,2900.0,1900.0,"SBB, SOB",SBB,1600.0,1900.0,1000.0,2000.0,2200.0,1300.0,2500.0,2800.0,1800.0,2500.0,2800.0,1800.0,2600.0,2900.0,1900.0
,,Heerbrugg,CH,SG,47.41039250659,9.6272488282,87.0,0,8,8,8,4,4,4,4,4,4,4,4,4,4,4,4,4,4,4,4,4,4,4,4,2,9459,8738,8653,8559,8481,8336,8229,8154,8095,8046,7999,7965,7910,7858,7858,7793,7719,7658,7523,7467,7291,7215,6251,Heerbrugg,exact,2025,4500.0,5200.0,2900.0,"SBB, SOB, Thurbo",SBB,3800.0,4500.0,2200.0,3600.0,4100.0,2200.0,3700.0,4400.0,2300.0,4000.0,4600.0,2500.0,4500.0,5200.0,2900.0
,,Lyss,CH,BE,47.07632350395,7.30630154849,86.0,0,8,8,8,8,8,8,8,8,8,8,8,8,8,8,8,8,8,8,8,8,8,8,4,2,17111,16639,16562,16525,16406,16219,16157,16091,16034,15965,15905,15834,15695,15570,15570,15445,15311,15195,15028,14952,14764,14648,14166,Lyss,exact,2025,10000.0,11700.0,6300.0,BLS,SBB,11000.0,13000.0,6600.0,9300.0,10600.0,6200.0,10100.0,11500.0,6800.0,10100.0,11700.0,6600.0,10000.0,11700.0,6300.0
,,Düdingen,CH,FR,46.85105245535,7.18975321001,84.0,0,8,8,6,6,6,6,4,4,4,0,0,0,0,0,0,0,0,0,0,0,0,0,0,2,9944,9237,9139,9073,8939,8754,8633,8520,8423,8343,8248,8165,8048,7941,7941,7791,7628,7452,7149,7028,6647,6370,4910,Düdingen,exact,2025,3700.0,4200.0,2400.0,"BLS, SBB, TPF",SBB,2800.0,3300.0,1500.0,3200.0,3600.0,2100.0,3500.0,4100.0,2200.0,3700.0,4300.0,2400.0,3700.0,4200.0,2400.0
,,Altstätten SG,CH,SG,47.37423480708,9.55651988356,82.0,0,8,8,8,4,2,4,4,4,4,4,4,4,4,4,4,4,4,4,4,4,4,4,4,2,13892,12833,12708,12571,12456,12243,12087,11976,11888,11818,11748,11698,11617,11541,11541,11445,11337,11247,11049,10967,10708,10597,9180,Altstätten SG,exact,2025,3200.0,3500.0,2300.0,"SBB, SOB, Thurbo",SBB,2300.0,2700.0,1500.0,2400.0,2700.0,1700.0,4300.0,4900.0,2800.0,2700.0,3100.0,1900.0,3200.0,3500.0,2300.0
,,Fraubrunnen,CH,BE,47.08658155127,7.52221594389,82.0,0,8,8,8,8,8,8,8,8,8,8,8,8,8,8,8,8,8,8,8,8,8,8,4,2,5734,5576,5550,5538,5498,5435,5415,5392,5373,5350,5330,5306,5260,5218,5218,5176,5131,5092,5036,5011,4948,4909,4747,,unmatched,,,,,,,,,,,,,,,,,,,,,
,,Laufen,CH,BL,47.41934648354,7.50263613094,80.0,0,8,8,4,4,4,4,4,4,4,4,4,4,8,8,8,8,8,8,8,8,8,4,4,2,6258,6061,6033,6024,5974,5886,5854,5817,5787,5760,5738,5710,5662,5623,5623,5571,5528,5505,5454,5422,5319,5257,4421,Laufen,exact,2025,6300.0,7100.0,4400.0,SBB,SBB,5700.0,6600.0,3900.0,5100.0,5700.0,3600.0,5700.0,6300.0,4100.0,5600.0,6400.0,4000.0,6300.0,7100.0,4400.0
,,Erstfeld,CH,UR,46.819517,8.651024,79.0,0,8,8,8,8,8,8,8,6,6,6,6,8,8,8,8,8,8,8,8,8,8,8,4,2,4180,4022,3999,3986,3950,3886,3858,3834,3822,3794,3780,3764,3746,3750,3750,3735,3717,3685,3680,3662,3654,3667,3498,Erstfeld,exact,2025,1000.0,1000.0,1100.0,"SBB, SOB",SBB,2500.0,2300.0,3100.0,950.0,910.0,1100.0,1100.0,1100.0,1200.0,1000.0,1000.0,1100.0,1000.0,1000.0,1100.0
,,Konolfingen,CH,BE,46.88070241892,7.6213670273,79.0,0,8,8,8,8,8,8,8,8,8,8,8,8,8,8,8,8,8,8,8,8,8,6,8,2,5726,5568,5542,5530,5490,5428,5407,5384,5366,5342,5322,5299,5252,5210,5210,5168,5124,5085,5029,5004,4940,4902,4740,Konolfingen,exact,2025,7600.0,8600.0,5400.0,BLS,SBB,7500.0,8700.0,5000.0,6600.0,7400.0,4800.0,7300.0,8300.0,5100.0,7200.0,8200.0,5000.0,7600.0,8600.0,5400.0
,,Chur,CH,GR,46.853843,9.52931,74.0,0,8,8,8,8,8,8,8,8,8,8,8,8,8,8,6,6,6,6,6,6,6,6,6,5,40692,39547,39356,39187,38949,38502,38281,38038,37834,37712,37618,37554,37375,37238,37238,37062,36864,36763,36473,36206,35701,35315,31082,Chur,exact,2025,29800.0,30300.0,28800.0,"RhB, SBB, SOB, Thurbo",SBB,24300.0,24900.0,23000.0,24400.0,24500.0,24300.0,27600.0,27800.0,27200.0,28500.0,28600.0,28200.0,29800.0,30300.0,28800.0
,,Grenchen Nord,CH,SO,47.19169820511,7.38961866289,72.0,0,8,8,8,8,8,8,8,8,8,8,8,8,12,12,12,12,12,12,8,8,8,4,4,2,13091,12451,12367,12322,12197,12008,11916,11798,11703,11616,11541,11457,12744,12615,12615,12506,12403,12293,10747,10708,10542,7854,6950,Grenchen Nord,exact,2025,1500.0,1800.0,840.0,SBB,BLS,1700.0,2100.0,800.0,1500.0,1800.0,790.0,1800.0,2200.0,1100.0,1600.0,1900.0,790.0,1500.0,1800.0,840.0
,,Flüelen,CH,UR,46.900556,8.624513,69.0,0,8,8,8,8,8,8,8,8,8,8,8,8,8,8,8,8,8,8,8,8,8,8,4,2,2180,2097,2086,2079,2060,2027,2012,2000,1993,1979,1971,1963,1954,1956,1956,1948,1938,1922,1919,1910,1906,1912,1825,Flüelen,exact,2025,1200.0,1100.0,1300.0,"SBB, SOB",SBB,1800.0,1800.0,1900.0,960.0,850.0,1200.0,1000.0,920.0,1200.0,1000.0,950.0,1200.0,1200.0,1100.0,1300.0
,,Maienfeld,CH,GR,47.004185,9.528503,65.0,0,8,8,8,0,0,0,0,0,0,0,0,0,0,0,0,4,4,4,4,4,4,4,4,2,3336,3242,3226,3212,3193,3156,3138,3118,3102,3092,3084,3079,3064,3053,3053,3038,3022,3014,2990,2968,2927,2895,2548,Maienfeld,exact,2025,1400.0,1500.0,1200.0,"SBB, SOB, Thurbo",SBB,820.0,930.0,590.0,880.0,960.0,700.0,950.0,1000.0,730.0,980.0,1100.0,760.0,1400.0,1500.0,1200.0
,,Bad Ragaz,CH,SG,47.010503,9.50487,63.0,0,8,8,8,8,8,8,8,8,8,8,8,8,8,4,4,8,8,8,8,8,8,8,8,2,7623,7042,6973,6898,6835,6718,6632,6572,6524,6485,6446,6419,6375,6333,6333,6280,6221,6171,6063,6018,5876,5815,5037,Bad Ragaz,exact,2025,2800.0,3000.0,2200.0,"SBB, SOB, Thurbo",SBB,2700.0,3000.0,2100.0,2800.0,3000.0,2300.0,2800.0,3000.0,2300.0,3100.0,3300.0,2700.0,2800.0,3000.0,2200.0
,,Brunnen,CH,SZ,47.0,8.611088,60.0,0,8,8,8,8,8,8,8,8,8,8,8,8,8,8,8,8,8,8,8,8,8,8,4,2,9912,9521,9465,9431,9346,9207,9139,9053,8959,8886,8782,8702,8603,8528,8528,8452,8365,8257,8078,8024,7678,7438,5503,Brunnen,exact,2025,3200.0,3300.0,2800.0,"SBB, SOB",SBB,2800.0,3000.0,2300.0,2500.0,2600.0,2300.0,2900.0,3000.0,2500.0,3100.0,3300.0,2700.0,3200.0,3300.0,2800.0
,,Flawil,CH,SG,47.41518938375,9.18978559141,58.0,0,8,8,8,8,8,8,8,8,8,8,8,8,8,8,8,4,4,4,4,4,4,4,0,2,11857,10953,10846,10729,10631,10449,10316,10222,10147,10086,10026,9984,9915,9850,9850,9768,9676,9599,9430,9360,9139,9044,7835,Flawil,exact,2025,3600.0,4000.0,2600.0,"SBB, Thurbo",SBB,3500.0,4100.0,2200.0,3200.0,3600.0,2400.0,3600.0,4000.0,2500.0,3700.0,4300.0,2500.0,3600.0,4000.0,2600.0
,,Rheinfelden,CH,AG,47.55121403251,7.79216890116,57.0,0,8,8,8,8,8,8,8,8,8,8,8,8,8,8,8,8,8,8,8,4,4,4,4,2,15503,14316,14164,14024,13854,13555,13400,13228,13072,12926,12788,12645,12459,12298,12298,12129,11957,11784,11436,11276,10851,10593,8748,Rheinfelden,exact,2025,9000.0,10300.0,6000.0,SBB,SBB,8600.0,9900.0,5900.0,7900.0,8800.0,5600.0,8600.0,9900.0,5800.0,8700.0,10000.0,5700.0,9000.0,10300.0,6000.0
,,Schwyz,CH,SZ,47.025776,8.632295,56.0,0,8,8,8,8,8,8,8,8,8,8,8,8,8,8,8,8,8,8,8,8,8,8,0,2,17160,16485,16387,16329,16181,15941,15822,15674,15512,15385,15205,15066,14894,14766,14766,14634,14482,14296,13985,13892,13293,12878,9527,Schwyz,exact,2025,2800.0,3000.0,2300.0,"SBB, SOB",SBB,2900.0,3200.0,2300.0,2200.0,2400.0,1800.0,2500.0,2700.0,2000.0,2700.0,3000.0,2200.0,2800.0,3000.0,2300.0
,,Möhlin,CH,AG,47.56185846602,7.83386265811,54.0,0,8,8,0,0,0,0,0,0,0,0,0,0,0,0,0,0,0,0,0,0,0,0,0,2,12700,11727,11603,11488,11349,11104,10977,10837,10708,10589,10476,10359,10206,10075,10075,9936,9795,9653,9368,9237,8889,8677,7166,Möhlin,exact,2025,3400.0,4000.0,2100.0,SBB,SBB,3700.0,4400.0,2200.0,3200.0,3700.0,2000.0,3500.0,4100.0,2100.0,3700.0,4400.0,2200.0,3400.0,4000.0,2100.0
,,Uzwil,CH,SG,47.43644399909,9.1309918193,53.0,0,8,8,8,8,8,8,8,8,8,8,8,8,8,8,8,4,4,4,4,4,4,4,0,2,15925,14711,14568,14410,14279,14035,13856,13729,13628,13547,13467,13410,13317,13231,13231,13121,12997,12893,12666,12572,12275,12148,10524,Uzwil,exact,2025,5500.0,6300.0,3800.0,"SBB, Thurbo",SBB,4800.0,5800.0,2800.0,4500.0,5000.0,3200.0,5100.0,5800.0,3700.0,5700.0,6400.0,4100.0,5500.0,6300.0,3800.0
,,Gelterkinden,CH,BL,47.46589371984,7.84766722157,52.0,0,8,8,4,4,4,4,4,4,4,4,4,4,4,4,4,4,4,4,4,4,4,4,0,2,6595,6388,6358,6348,6296,6203,6169,6130,6099,6070,6047,6018,5967,5927,5927,5871,5826,5801,5748,5714,5606,5540,4660,Gelterkinden,exact,2025,4700.0,5300.0,3400.0,"SBB, SOB",SBB,4900.0,5600.0,3300.0,4300.0,4700.0,3200.0,4500.0,5100.0,3100.0,4900.0,5500.0,3500.0,4700.0,5300.0,3400.0
,,Herzogenbuchsee,CH,BE,47.18808612827,7.70095826853,52.0,0,8,8,8,8,8,8,8,8,8,8,8,8,8,8,8,8,8,8,8,8,8,12,12,2,7758,7544,7509,7492,7438,7353,7325,7295,7269,7238,7211,7179,7116,7059,7059,7002,6942,6889,6813,6779,6693,6641,6422,Herzogenbuchsee,exact,2025,3400.0,3900.0,2400.0,"BLS, SBB, SOB",SBB,3900.0,4500.0,2400.0,3400.0,3900.0,2300.0,3500.0,4000.0,2400.0,3300.0,3700.0,2300.0,3400.0,3900.0,2400.0
,,Sissach,CH,BL,47.46275411687,7.81202757047,46.0,0,8,8,8,8,8,8,8,8,8,8,8,8,8,8,8,8,8,8,8,8,8,4,8,2,7177,6951,6918,6908,6851,6750,6713,6671,6636,6606,6580,6548,6493,6449,6449,6388,6340,6313,6254,6218,6100,6028,5070,Sissach,exact,2025,7700.0,8800.0,5500.0,"SBB, SOB",SBB,7800.0,8800.0,5400.0,7800.0,8600.0,5900.0,7600.0,8600.0,5400.0,7900.0,8900.0,5600.0,7700.0,8800.0,5500.0
,,Stein-Säckingen,CH,AG,47.54160826005,7.94884287334,46.0,0,8,8,4,4,4,4,4,4,4,4,4,4,4,4,4,4,4,4,4,4,4,0,4,2,3921,3621,3582,3547,3504,3429,3389,3346,3306,3269,3235,3198,3151,3111,3111,3068,3024,2981,2892,2852,2745,2679,2213,Stein-Säckingen,exact,2025,3100.0,3800.0,1700.0,SBB,SBB,3100.0,3800.0,1500.0,2600.0,3100.0,1500.0,3000.0,3700.0,1600.0,3300.0,4000.0,1900.0,3100.0,3800.0,1700.0
,,Frick,CH,AG,47.50734852395,8.01309246283,40.0,0,8,8,8,8,8,8,8,8,8,8,8,8,8,8,8,8,8,8,8,8,8,4,4,2,6424,5932,5869,5811,5741,5617,5553,5482,5417,5356,5299,5240,5163,5096,5096,5026,4955,4883,4739,4673,4497,4390,3625,Frick,exact,2025,4800.0,5500.0,3200.0,SBB,SBB,4900.0,5800.0,3000.0,4000.0,4500.0,3000.0,4900.0,5400.0,3800.0,5000.0,5800.0,3200.0,4800.0,5500.0,3200.0
,,Siebnen-Wangen,CH,SZ,47.182845,8.900975,33.0,0,8,8,8,8,8,8,8,8,8,8,8,8,8,8,8,4,4,4,4,4,4,0,4,2,5829,5599,5566,5546,5496,5414,5374,5324,5269,5226,5164,5117,5059,5015,5015,4970,4919,4856,4750,4718,4515,4374,3236,Siebnen-Wangen,exact,2025,3400.0,3900.0,2300.0,"SBB, SOB",SBB,3000.0,3600.0,1800.0,2700.0,3100.0,1800.0,3100.0,3600.0,2100.0,3200.0,3700.0,2100.0,3400.0,3900.0,2300.0
,,Le Crêt-du-Locle,CH,NE,47.07723272269,6.78458129083,125.0,0,8,4,4,4,4,4,4,4,4,4,4,4,4,4,4,4,4,4,4,4,0,0,0,2,16770,9339,9328,9372,9308,9219,12263,12244,12286,12311,12388,12430,14878,14813,14813,14736,14581,14466,14338,14278,0,0,0,Le Crêt-du-Locle,exact,2025,470.0,650.0,80.0,SBB,SBB,270.0,360.0,70.0,380.0,510.0,60.0,530.0,730.0,80.0,490.0,650.0,120.0,470.0,650.0,80.0
,,Ins,CH,BE,46.99983140901,7.09956100561,95.0,0,8,4,4,4,4,4,4,4,4,4,4,4,4,4,4,4,4,4,4,4,4,4,4,2,3883,3776,3758,3750,3723,3681,3667,3651,3639,3623,3609,3593,3562,3533,3533,3505,3475,3448,3410,3393,3350,3324,3215,Ins,exact,2025,2400.0,2700.0,1800.0,"BLS, TPF",BLS,1900.0,2200.0,1400.0,2000.0,2200.0,1500.0,2400.0,2600.0,1800.0,2600.0,2900.0,2000.0,2400.0,2700.0,1800.0
,,Kerzers,CH,FR,46.97507896332,7.19281016807,88.0,0,8,4,4,4,4,4,4,4,4,4,4,4,4,4,4,4,4,4,4,4,4,4,4,2,6060,5630,5570,5530,5448,5335,5262,5193,5134,5085,5027,4976,4905,4840,4840,4748,4649,4542,4357,4284,4051,3883,2992,Kerzers,exact,2025,3200.0,3500.0,2500.0,BLS,SBB,4200.0,4600.0,3400.0,3900.0,4200.0,3200.0,4500.0,4900.0,3700.0,4400.0,4800.0,3500.0,3200.0,3500.0,2500.0
,,Flums,CH,SG,47.096902,9.347858,66.0,0,8,4,0,0,0,0,0,0,0,0,0,0,0,0,0,0,0,0,0,0,0,0,0,2,5963,5509,5455,5396,5347,5256,5188,5141,5103,5073,5043,5022,4987,4954,4954,4913,4867,4828,4743,4708,4596,4549,3941,Flums,exact,2025,620.0,680.0,500.0,"SBB, SOB",SBB,550.0,610.0,400.0,500.0,560.0,370.0,560.0,630.0,400.0,660.0,710.0,530.0,620.0,680.0,500.0
,,Walenstadt,CH,SG,47.119755,9.312466,62.0,0,8,4,4,4,4,4,4,4,4,4,4,4,4,4,4,0,0,0,0,0,0,0,0,2,6527,6029,5970,5906,5852,5752,5678,5627,5585,5552,5519,5496,5458,5422,5422,5377,5326,5284,5191,5153,5031,4979,4313,Walenstadt,exact,2025,1900.0,2000.0,1600.0,"SBB, SOB",SBB,1500.0,1600.0,1200.0,1700.0,1800.0,1400.0,1900.0,2000.0,1600.0,2000.0,2100.0,1700.0,1900.0,2000.0,1600.0
,,Wynigen,CH,BE,47.10517483139,7.6635068635,59.0,0,8,4,4,4,4,4,4,4,4,4,4,4,4,4,4,4,4,4,4,4,4,4,0,2,2175,2115,2105,2100,2085,2061,2053,2045,2038,2029,2021,2012,1995,1979,1979,1963,1946,1931,1910,1900,1876,1862,1800,Wynigen,exact,2025,860.0,990.0,590.0,"BLS, SBB, SOB",SBB,860.0,990.0,580.0,750.0,840.0,530.0,870.0,980.0,620.0,880.0,1000.0,600.0,860.0,990.0,590.0
,,Unterterzen,CH,SG,47.114202,9.256197,57.0,0,8,4,4,0,0,0,0,0,0,0,0,0,0,0,0,0,0,0,0,0,0,0,0,2,3441,3178,3147,3113,3085,3032,2994,2966,2944,2927,2910,2897,2877,2858,2858,2835,2808,2785,2737,2716,2652,2625,2274,Unterterzen,exact,2025,1400.0,1200.0,1800.0,"SBB, SOB",SBB,580.0,490.0,800.0,610.0,480.0,900.0,620.0,460.0,970.0,760.0,630.0,1000.0,1400.0,1200.0,1800.0
,,Oensingen,CH,SO,47.28503510559,7.709870322,43.0,0,8,4,4,4,4,4,4,4,4,4,4,4,4,4,4,4,4,4,4,4,4,4,4,2,7122,6775,6729,6704,6636,6533,6483,6419,6368,6320,6279,6233,6163,6101,6101,6048,5998,5945,5847,5826,5736,5698,5042,Oensingen,exact,2025,5200.0,6000.0,3500.0,SBB,SBB,5300.0,6000.0,3700.0,4500.0,5100.0,3100.0,4900.0,5600.0,3300.0,5100.0,5900.0,3500.0,5200.0,6000.0,3500.0
,,Lachen SZ,CH,SZ,47.189894,8.8528,28.0,0,8,4,4,4,4,4,4,4,4,4,4,4,4,4,4,4,4,4,0,0,0,0,4,2,10030,9635,9578,9544,9458,9318,9248,9162,9067,8993,8887,8806,8706,8631,8631,8554,8465,8356,8175,8120,7770,7527,5569,Lachen SZ,exact,2025,3500.0,4000.0,2300.0,"SBB, SOB",SBB,,,,2800.0,3200.0,2000.0,3200.0,3600.0,2200.0,3200.0,3800.0,2000.0,3500.0,4000.0,2300.0
,,Cernier Val-de-Ruz,CH,NE,47.05311,6.90913,,0,8,0,0,0,0,0,0,0,0,0,0,0,0,0,0,0,0,0,0,0,0,0,0,2,17733,0,0,0,0,0,0,0,0,0,0,0,0,0,0,0,0,0,0,0,0,0,0,,unmatched,,,,,,,,,,,,,,,,,,,,,
,,Roggwil-Wynau,CH,BE,47.25163965189,7.81491637783,51.0,0,8,0,0,0,0,0,0,0,0,0,0,0,0,0,0,0,0,0,0,0,0,0,0,2,4512,4387,4367,4357,4326,4277,4260,4243,4228,4210,4194,4175,4138,4106,4106,4073,4037,4007,3963,3943,3893,3863,3735,Roggwil-Wynau,exact,2025,350.0,400.0,250.0,"SBB, SOB",SBB,270.0,320.0,160.0,310.0,340.0,240.0,320.0,340.0,300.0,330.0,370.0,240.0,350.0,400.0,250.0
,,Murgenthal,CH,AG,47.26538126992,7.8321059408,49.0,0,8,0,0,0,0,0,0,0,0,0,0,0,0,0,0,0,0,0,0,0,0,0,0,2,3470,3204,3170,3139,3101,3034,2999,2961,2926,2893,2862,2830,2789,2753,2753,2715,2676,2638,2560,2524,2429,2371,1958,Murgenthal,exact,2025,580.0,680.0,360.0,"SBB, SOB",SBB,500.0,590.0,290.0,540.0,600.0,420.0,540.0,590.0,420.0,570.0,650.0,390.0,580.0,680.0,360.0
,,Egerkingen,CH,SO,47.31486483593,7.79896647346,45.0,0,8,0,0,0,0,0,0,0,0,0,0,0,0,0,0,0,0,0,0,0,0,0,0,2,4615,4390,4360,4344,4300,4234,4201,4159,4126,4095,4069,4039,3994,3953,3953,3919,3887,3852,3789,3775,3717,3692,3267,Egerkingen,exact,2025,1300.0,1500.0,750.0,SBB,SBB,1300.0,1500.0,840.0,1400.0,1600.0,770.0,1400.0,1700.0,840.0,1400.0,1700.0,820.0,1300.0,1500.0,750.0
,,Rothrist,CH,AG,47.30645567946,7.87939646804,44.0,0,8,0,0,0,0,0,0,0,0,0,0,0,0,0,0,0,0,0,0,0,0,0,0,2,11040,10195,10087,9987,9866,9653,9543,9421,9309,9205,9107,9005,8872,8758,8758,8637,8515,8392,8144,8030,7728,7544,6230,Rothrist,exact,2025,1100.0,1300.0,620.0,SBB,SBB,1000.0,1200.0,470.0,940.0,1100.0,580.0,1000.0,1200.0,600.0,1100.0,1300.0,590.0,1100.0,1300.0,620.0
,,Ebikon,CH,LU,47.084303,8.342252,39.0,0,8,0,0,0,0,0,0,0,0,0,0,0,0,0,0,0,0,0,0,0,0,0,0,2,16529,15135,14978,14838,14662,14395,14241,14106,13997,13876,13773,13668,13511,13370,13370,13226,13081,12942,12637,12494,12075,11923,10117,Ebikon,exact,2025,2400.0,2600.0,1800.0,SBB,SBB,1600.0,1800.0,1000.0,2000.0,2200.0,1400.0,2200.0,2400.0,1600.0,2300.0,2600.0,1700.0,2400.0,2600.0,1800.0
,,Cham,CH,ZG,47.178112,8.457454,26.0,0,8,0,0,0,0,0,0,0,0,0,0,0,0,0,0,0,0,0,0,0,0,0,0,2,19660,18373,18207,18026,17867,17679,17494,17360,17205,17096,16905,16707,16462,16187,16187,15921,15713,15515,14947,14878,14354,13803,10404,Cham,exact,2025,5900.0,6800.0,3900.0,SBB,SBB,5800.0,6800.0,3600.0,5300.0,6100.0,3600.0,5800.0,6600.0,4000.0,6100.0,7100.0,4000.0,5900.0,6800.0,3900.0
,,Kemptthal,CH,ZH,47.452476,8.705568,25.0,0,8,0,0,0,0,0,0,0,0,0,0,0,0,0,0,0,0,0,0,0,0,0,0,2,6479,6040,5986,5928,5875,5782,5726,5684,5633,5566,5505,5445,5366,5293,5293,5216,5154,5095,4945,4877,4657,4542,4126,Kemptthal,exact,2025,840.0,1000.0,490.0,SBB,SBB,630.0,750.0,370.0,600.0,720.0,340.0,690.0,850.0,320.0,790.0,970.0,400.0,840.0,1000.0,490.0
,,Horgen,CH,ZH,47.261696,8.596719,17.0,0,8,0,0,0,0,0,0,0,0,0,0,0,0,0,0,0,0,0,0,0,0,0,4,2,26148,24375,24156,23923,23709,23332,23106,22940,22731,22461,22215,21973,21655,21359,21359,21051,20801,20562,19955,19681,18793,18331,16652,Horgen,exact,2025,9200.0,10700.0,5700.0,"SBB, SOB",SBB,8000.0,9500.0,4800.0,7300.0,8500.0,4600.0,8500.0,9900.0,5500.0,8900.0,10400.0,5400.0,9200.0,10700.0,5700.0
,,Bassersdorf,CH,ZH,47.438526,8.626188,16.0,0,8,0,0,0,0,0,0,0,0,0,0,0,0,0,0,0,0,0,0,0,0,0,0,2,13440,12528,12416,12296,12186,11992,11876,11791,11683,11544,11418,11294,11130,10978,10978,10820,10691,10568,10257,10116,9659,9422,8559,Bassersdorf,exact,2025,5800.0,6300.0,4900.0,SBB,SBB,4700.0,5300.0,3200.0,4100.0,4600.0,2900.0,4600.0,5200.0,3300.0,4600.0,5200.0,3200.0,5800.0,6300.0,4900.0
,,Effretikon,CH,ZH,47.425598,8.68679,15.0,0,8,0,0,0,0,0,0,0,0,0,0,0,0,0,0,0,0,0,0,0,0,0,0,2,19498,18176,18013,17839,17679,17398,17229,17105,16950,16748,16565,16385,16147,15926,15926,15697,15510,15332,14880,14675,14013,13669,12417,Effretikon,exact,2025,17400.0,20300.0,11100.0,SBB,SBB,17000.0,19700.0,10900.0,15300.0,17500.0,10300.0,16900.0,19400.0,11100.0,17300.0,20000.0,11200.0,17400.0,20300.0,11100.0
,,Zürich Enge,CH,ZH,47.364028,8.530693,4.0,0,8,0,0,0,0,0,0,0,0,0,0,0,0,0,0,0,0,0,0,0,0,4,4,2,8624,0,0,0,0,0,0,0,0,0,0,0,0,0,0,0,0,0,0,0,0,7064,11290,Zürich Enge,exact,2025,15300.0,18900.0,7500.0,SBB,SBB,14900.0,18900.0,6100.0,12000.0,14600.0,6000.0,14600.0,17500.0,7900.0,15200.0,18700.0,7500.0,15300.0,18900.0,7500.0
,,Chiasso,CH,TI,45.832013,9.031386,141.0,0,6,6,6,6,8,8,8,4,6,4,2,2,2,2,2,2,2,2,2,4,4,8,6,2,7861,7658,7627,7590,7565,7487,7448,7423,7433,7472,7480,7494,7443,7409,7409,7329,7225,7126,7100,7037,6815,6667,5736,Chiasso,exact,2025,9100.0,10200.0,6700.0,SBB,SBB,5200.0,6300.0,2700.0,6800.0,7500.0,5200.0,8600.0,9600.0,6100.0,8800.0,10000.0,6000.0,9100.0,10200.0,6700.0
,,Bulle,CH,FR,46.61922510287,7.05300172867,129.0,0,6,4,4,4,4,4,4,4,4,4,4,4,4,4,4,4,4,2,2,2,2,2,2,2,17854,27642,27347,27151,26749,26195,25834,25497,25206,24965,24680,24433,24084,23764,23764,23313,22826,22299,21394,21032,19890,19063,14692,,unmatched,,,,,,,,,,,,,,,,,,,,,
,,Sursee,CH,LU,47.17079504094,8.09789386466,59.0,0,4,16,12,12,12,12,12,12,12,12,12,12,12,12,12,12,12,12,12,16,16,4,4,2,12187,11159,11043,10940,10810,10613,10500,10400,10320,10231,10155,10077,9961,9857,9857,9751,9644,9542,9317,9211,8903,8790,7459,Sursee,exact,2025,13400.0,15100.0,9700.0,"SBB, SOB",SBB,12100.0,13900.0,8100.0,11400.0,12700.0,8200.0,12900.0,14400.0,9600.0,13500.0,15200.0,9700.0,13400.0,15100.0,9700.0
,,Zofingen,CH,AG,47.28805253541,7.94311767398,41.0,0,4,16,12,12,12,12,12,12,12,12,12,12,12,12,12,12,12,12,12,18,18,4,4,2,14319,13222,13082,12953,12796,12520,12377,12218,12073,11939,11812,11679,11507,11359,11359,11202,11043,10884,10563,10415,10023,9784,8080,Zofingen,exact,2025,10100.0,11400.0,7100.0,"SBB, SOB",SBB,8900.0,10300.0,5700.0,8700.0,9700.0,6300.0,9600.0,10900.0,6900.0,10000.0,11300.0,7200.0,10100.0,11400.0,7100.0
,,Hohtenn,CH,VS,46.32245880494,7.76408688742,148.0,0,4,8,8,4,4,4,4,4,4,4,4,4,4,4,4,4,4,4,4,4,4,4,4,2,1885,1747,1729,1716,1691,1651,1633,1611,1597,1590,1578,1568,1552,1533,1533,1512,1487,1465,1421,1402,1348,1300,343,Hohtenn,exact,2025,70.0,60.0,90.0,BLS,BLS,70.0,60.0,100.0,50.0,49.0,70.0,60.0,49.0,80.0,60.0,49.0,90.0,70.0,60.0,90.0
,,Goppenstein,CH,VS,46.36770714813,7.75492126836,142.0,0,4,8,8,8,8,8,8,8,8,4,4,4,4,4,4,4,4,4,4,4,10,10,12,2,282,261,259,257,253,247,244,241,239,238,236,235,232,229,229,226,222,219,213,210,202,195,154,Goppenstein,exact,2025,680.0,610.0,820.0,"BLS, SBB",BLS,690.0,650.0,790.0,610.0,580.0,670.0,670.0,620.0,790.0,740.0,670.0,880.0,680.0,610.0,820.0
,,Ausserberg,CH,VS,46.31234824496,7.8441670281,141.0,0,4,8,8,8,8,8,8,8,8,4,4,4,4,4,4,4,4,4,4,4,4,4,4,2,710,658,651,646,637,622,615,607,602,599,595,591,585,578,578,569,560,552,535,528,508,490,388,Ausserberg,exact,2025,180.0,170.0,210.0,BLS,BLS,180.0,160.0,210.0,160.0,140.0,210.0,170.0,160.0,200.0,180.0,160.0,220.0,180.0,170.0,210.0
,,Eggerberg,CH,VS,46.30654629814,7.88103271919,139.0,0,4,8,8,8,8,8,8,8,8,4,4,4,4,4,4,4,4,4,4,4,4,4,4,2,367,340,336,334,329,321,318,313,311,309,307,305,302,298,298,294,289,285,276,273,262,253,200,Eggerberg,exact,2025,80.0,80.0,80.0,BLS,BLS,60.0,60.0,80.0,60.0,50.0,90.0,60.0,60.0,70.0,70.0,60.0,80.0,80.0,80.0,80.0
,,Kandersteg,CH,BE,46.49539665055,7.6714125588,128.0,0,4,8,8,8,8,8,8,8,8,4,4,4,4,4,4,4,4,4,4,4,8,8,12,2,1364,1327,1320,1317,1308,1293,1288,1283,1278,1273,1268,1262,1251,1241,1241,1231,1221,1211,1198,1192,1177,1168,1129,Kandersteg,exact,2025,1600.0,1400.0,2000.0,"BLS, SBB",BLS,1200.0,1100.0,1500.0,1200.0,1100.0,1500.0,1400.0,1200.0,1700.0,1400.0,1300.0,1700.0,1600.0,1400.0,2000.0
,,Frutigen,CH,BE,46.58890754282,7.65141831454,112.0,0,4,8,8,8,8,8,8,8,8,4,4,4,4,4,4,4,4,4,4,4,8,8,12,2,7372,7168,7135,7119,7068,6988,6961,6932,6908,6878,6852,6822,6762,6708,6708,6654,6596,6546,6475,6442,6360,6311,6103,Frutigen,exact,2025,2600.0,2600.0,2400.0,"BLS, SBB",BLS,2400.0,2500.0,2000.0,2300.0,2300.0,2200.0,2500.0,2600.0,2200.0,2400.0,2600.0,2200.0,2600.0,2600.0,2400.0
,,Reichenbach im Kandertal,CH,BE,46.62512156009,7.69006267569,107.0,0,4,8,8,8,8,8,8,8,8,4,4,4,4,4,4,4,4,4,4,4,0,0,4,2,1942,1888,1879,1875,1862,1841,1834,1826,1820,1812,1805,1797,1781,1767,1767,1753,1738,1724,1705,1697,1675,1662,1608,Reichenbach im Kandertal,exact,2025,620.0,640.0,580.0,BLS,BLS,600.0,630.0,540.0,540.0,550.0,520.0,580.0,610.0,530.0,590.0,620.0,530.0,620.0,640.0,580.0
,,Mülenen,CH,BE,46.63802803847,7.69131664681,105.0,0,4,8,8,8,8,8,8,8,8,4,4,4,4,4,4,4,4,4,4,4,0,0,4,2,1941,1888,1879,1875,1861,1840,1833,1825,1819,1811,1804,1796,1781,1766,1766,1752,1737,1724,1705,1696,1675,1662,1607,Mülenen,exact,2025,280.0,270.0,300.0,BLS,BLS,260.0,240.0,290.0,260.0,250.0,300.0,280.0,280.0,300.0,270.0,270.0,280.0,280.0,270.0,300.0
,,Münsingen,CH,BE,46.87335414995,7.55944239602,77.0,0,4,8,8,8,8,8,8,8,8,4,4,4,4,4,4,4,4,0,0,0,0,0,0,2,13677,13299,13237,13208,13113,12964,12914,12861,12816,12760,12713,12656,12545,12445,12445,12345,12238,12145,12012,11951,11800,11708,11323,Münsingen,exact,2025,6600.0,7600.0,4500.0,"BLS, SBB",SBB,6600.0,7700.0,4300.0,5900.0,6700.0,4000.0,6400.0,7300.0,4300.0,6500.0,7400.0,4500.0,6600.0,7600.0,4500.0
,,Herisau,CH,AR,47.39016520867,9.27681223562,69.0,0,4,8,8,6,6,6,6,6,6,4,4,4,4,4,4,4,4,4,4,4,4,8,4,2,16325,16059,16008,15952,15893,15686,15637,15559,15598,15538,15523,15459,15344,15209,15209,15104,15033,14998,14922,14925,14786,14937,13566,Herisau,exact,2025,5800.0,6500.0,4200.0,"SOB, Thurbo",SOB,4800.0,5600.0,3100.0,4700.0,5300.0,3300.0,5100.0,5800.0,3300.0,5600.0,6400.0,3900.0,5800.0,6500.0,4200.0
,,Konstanz,DE,BW,47.65810000003,9.17699999467,72.0,6,4,6,6,4,4,4,4,4,4,6,2,2,2,2,2,2,2,2,2,2,2,2,4,2,86898,86898,86898,86898,86898,86898,86898,86898,86898,86898,86898,86898,86898,86898,86898,86898,86898,86898,86898,86898,86898,86898,86898,,unmatched,,,,,,,,,,,,,,,,,,,,,
,,Annemasse,FR,ARA,46.19951,6.23647,201.0,0,4,4,4,4,4,4,4,4,0,0,0,0,0,0,0,0,0,0,0,0,0,0,0,2,37918,37918,37918,37918,37918,37918,37918,37918,37918,37918,37918,37918,37918,37918,37918,37918,37918,37918,37918,37918,37918,37918,37918,,unmatched,,,,,,,,,,,,,,,,,,,,,
,,Brienz,CH,BE,46.75484373697,8.03894632985,139.0,0,4,4,4,4,4,4,4,4,4,4,4,4,4,4,4,4,4,4,4,4,4,4,4,2,3419,3325,3309,3302,3278,3241,3228,3215,3204,3190,3178,3164,3136,3111,3111,3086,3059,3036,3003,2988,2950,2927,2830,Brienz,exact,2025,2700.0,2800.0,2700.0,Zentralbahn,ZB,1500.0,1500.0,1400.0,1700.0,1700.0,1700.0,2400.0,2400.0,2300.0,2400.0,2400.0,2400.0,2700.0,2800.0,2700.0
,,Leuk,CH,VS,46.31157951167,7.64493650277,133.0,0,4,4,4,4,4,4,4,4,4,4,4,4,4,8,8,8,8,8,8,8,4,8,12,2,4801,4450,4403,4371,4307,4206,4158,4103,4068,4049,4020,3993,3952,3906,3906,3850,3788,3732,3619,3570,3433,3312,2621,Leuk,exact,2025,2400.0,2500.0,2200.0,"RegionAlps, SBB",SBB,1800.0,2000.0,1500.0,1900.0,2000.0,1700.0,2300.0,2400.0,1800.0,2300.0,2500.0,2000.0,2400.0,2500.0,2200.0
,,Meiringen,CH,BE,46.72733215375,8.18425121495,126.0,0,4,4,4,4,4,4,4,4,4,4,4,4,4,4,4,4,4,4,4,4,4,4,4,2,2502,2433,2422,2417,2399,2372,2363,2353,2345,2335,2326,2316,2295,2277,2277,2259,2239,2222,2198,2187,2159,2142,2072,Meiringen,exact,2025,4100.0,4100.0,4000.0,Zentralbahn,ZB,2000.0,2000.0,1900.0,2500.0,2600.0,2500.0,3400.0,3500.0,3200.0,4100.0,4300.0,3800.0,4100.0,4100.0,4000.0
,,Palézieux,CH,VD,46.5427635936,6.83787527681,117.0,0,4,4,4,4,4,4,4,4,4,4,6,6,6,6,6,6,4,4,4,4,4,8,4,2,6910,6369,6303,6240,6173,6060,6006,5946,5875,5832,5788,5727,5644,5557,5557,5469,5359,5298,5120,5023,4773,4605,3878,Palézieux,exact,2025,6500.0,7000.0,5300.0,SBB,SBB,4000.0,4600.0,2800.0,4800.0,5500.0,3400.0,6900.0,7800.0,4700.0,7600.0,8500.0,5700.0,6500.0,7000.0,5300.0
,,Brünig-Hasliberg,CH,BE,46.75776257158,8.13865406129,113.0,0,4,4,4,4,4,4,4,4,4,4,4,4,4,4,4,4,4,4,4,4,4,4,4,2,2502,2433,2422,2416,2399,2371,2362,2353,2344,2334,2326,2315,2295,2277,2277,2258,2239,2222,2197,2186,2159,2142,2071,Brünig-Hasliberg,exact,2025,590.0,530.0,720.0,Zentralbahn,ZB,540.0,490.0,670.0,550.0,500.0,680.0,590.0,570.0,650.0,620.0,590.0,680.0,590.0,530.0,720.0
,,St-Imier,CH,BE,47.15171108118,7.00122388741,102.0,0,4,4,4,4,4,4,4,4,4,4,4,4,4,4,4,4,4,4,4,4,4,8,4,2,5307,5160,5136,5125,5088,5030,5011,4990,4973,4951,4933,4911,4867,4829,4829,4790,4748,4712,4661,4637,4579,4543,4393,St-Imier,exact,2025,1900.0,2300.0,890.0,SBB,SBB,1900.0,2300.0,960.0,1800.0,2200.0,910.0,1900.0,2300.0,950.0,1900.0,2300.0,990.0,1900.0,2300.0,890.0
,,Lungern,CH,OW,46.78635283223,8.16356472878,100.0,0,4,4,4,4,4,4,4,4,4,4,4,4,4,4,4,4,4,4,4,4,4,4,4,2,1083,1049,1043,1041,1031,1016,1009,1000,996,993,986,981,973,967,967,958,948,942,919,904,873,865,1394,Lungern,exact,2025,700.0,670.0,750.0,Zentralbahn,ZB,450.0,450.0,460.0,450.0,420.0,510.0,500.0,490.0,520.0,610.0,600.0,650.0,700.0,670.0,750.0
,,Courtelary,CH,BE,47.17563154332,7.06880326998,96.0,0,4,4,4,4,4,4,4,4,4,4,4,4,4,4,4,4,4,4,4,4,4,8,4,2,1497,1455,1449,1445,1435,1419,1413,1407,1402,1396,1391,1385,1373,1362,1362,1351,1339,1329,1315,1308,1291,1281,1239,Courtelary,exact,2025,500.0,590.0,300.0,SBB,SBB,520.0,620.0,310.0,460.0,540.0,280.0,510.0,590.0,320.0,550.0,640.0,350.0,500.0,590.0,300.0
,,Trubschachen,CH,BE,46.92169995858,7.84614196442,94.0,0,4,4,4,4,4,4,4,4,4,4,4,4,4,4,4,4,4,4,4,4,4,0,0,2,1575,1531,1524,1521,1510,1493,1487,1481,1476,1469,1464,1457,1445,1433,1433,1422,1409,1398,1383,1376,1359,1348,1304,Trubschachen,exact,2025,690.0,730.0,620.0,BLS,SBB,800.0,850.0,690.0,700.0,700.0,670.0,740.0,760.0,690.0,740.0,770.0,680.0,690.0,730.0,620.0
,,Kaiserstuhl OW,CH,OW,46.81436654594,8.17552469217,93.0,0,4,4,4,4,4,4,4,4,4,4,4,4,4,4,4,4,4,4,4,4,4,4,0,2,1083,1048,1042,1040,1030,1015,1008,1000,995,993,986,981,973,966,966,958,947,941,919,903,873,865,0,Kaiserstuhl OW,exact,2025,160.0,140.0,190.0,Zentralbahn,ZB,160.0,150.0,170.0,130.0,120.0,160.0,120.0,110.0,140.0,160.0,150.0,190.0,160.0,140.0,190.0
,,Langnau i.E.,CH,BE,46.93924227873,7.78419743448,93.0,0,4,4,4,4,4,4,4,4,4,4,4,4,4,4,4,4,4,4,4,4,4,4,4,2,9896,9623,9578,9557,9488,9380,9344,9306,9273,9233,9198,9157,9077,9005,9005,8932,8855,8787,8691,8647,8538,8471,8193,Langnau i.E.,exact,2025,5000.0,5500.0,4000.0,BLS,SBB,,,,4000.0,4400.0,3100.0,4400.0,4800.0,3500.0,4500.0,4900.0,3500.0,5000.0,5500.0,4000.0
,,Sonceboz-Sombeval,CH,BE,47.1951483572,7.16876357856,89.0,0,4,4,4,4,4,4,4,4,4,4,4,4,4,4,4,4,4,4,4,4,4,8,4,2,1995,1940,1931,1927,1913,1891,1884,1876,1870,1862,1855,1846,1830,1816,1816,1801,1785,1772,1752,1743,1721,1708,1652,Sonceboz-Sombeval,exact,2025,2300.0,2900.0,960.0,SBB,SBB,2400.0,3000.0,1100.0,2500.0,3000.0,1200.0,2500.0,3100.0,1200.0,1700.0,2100.0,810.0,2300.0,2900.0,960.0
,,Escholzmatt,CH,LU,46.9153482314,7.93637795766,86.0,0,4,4,4,4,4,4,4,4,4,4,4,4,4,4,4,4,4,4,4,4,4,0,0,2,5044,4618,4570,4528,4474,4392,4346,4304,4271,4234,4203,4171,4123,4080,4080,4036,3992,3949,3856,3812,3685,3638,3087,Escholzmatt,exact,2025,930.0,1000.0,750.0,BLS,SBB,970.0,1100.0,760.0,880.0,930.0,750.0,930.0,990.0,780.0,970.0,1100.0,800.0,930.0,1000.0,750.0
,,Giswil,CH,OW,46.8365344001,8.18631769163,85.0,0,4,4,4,4,4,4,4,4,4,4,4,4,4,4,4,4,4,4,4,4,4,4,4,2,4146,4012,3991,3983,3944,3887,3860,3827,3809,3800,3774,3754,3723,3699,3699,3666,3627,3604,3518,3458,3341,3310,2668,Giswil,exact,2025,1500.0,1600.0,1300.0,Zentralbahn,ZB,960.0,1000.0,820.0,960.0,1000.0,820.0,1500.0,1600.0,1300.0,1400.0,1500.0,1200.0,1500.0,1600.0,1300.0
,,Schüpfheim,CH,LU,46.9506473599,8.01515058924,78.0,0,4,4,4,4,4,4,4,4,4,4,4,4,4,4,4,4,4,4,4,4,4,4,0,2,4792,4388,4343,4302,4251,4173,4129,4090,4058,4023,3993,3963,3917,3876,3876,3835,3793,3752,3664,3622,3501,3457,2933,Schüpfheim,exact,2025,2400.0,2600.0,2000.0,BLS,SBB,1700.0,1800.0,1300.0,1500.0,1600.0,1300.0,1600.0,1700.0,1300.0,1600.0,1700.0,1200.0,2400.0,2600.0,2000.0
,,Sachseln,CH,OW,46.87096236495,8.23830577823,77.0,0,4,4,4,4,4,4,4,4,4,4,4,4,4,4,4,0,0,0,0,0,0,4,0,2,5565,5386,5357,5347,5294,5217,5181,5137,5113,5101,5065,5039,4998,4965,4965,4921,4868,4837,4722,4641,4485,4443,3582,Sachseln,exact,2025,1200.0,1300.0,1100.0,Zentralbahn,ZB,900.0,980.0,740.0,1000.0,1000.0,900.0,1100.0,1200.0,970.0,1200.0,1300.0,1000.0,1200.0,1300.0,1100.0
,,Sarnen,CH,OW,46.89460627393,8.24749935852,74.0,0,4,4,4,4,4,4,4,4,4,4,4,4,4,4,4,4,4,4,4,4,4,4,4,2,11292,10928,10869,10849,10742,10586,10513,10424,10375,10351,10278,10224,10141,10075,10075,9986,9878,9816,9582,9417,9100,9016,7267,Sarnen,exact,2025,3900.0,4100.0,3300.0,Zentralbahn,ZB,2900.0,3200.0,2400.0,3100.0,3300.0,2600.0,3400.0,3700.0,2700.0,3600.0,3900.0,2900.0,3900.0,4100.0,3300.0
,,Entlebuch,CH,LU,46.99369335594,8.06236432888,72.0,0,4,4,4,4,4,4,4,4,4,4,4,4,4,4,4,4,4,4,4,4,4,0,0,2,3818,3496,3460,3428,3387,3325,3290,3259,3233,3206,3182,3157,3121,3088,3088,3055,3022,2990,2919,2886,2789,2754,2337,Entlebuch,exact,2025,870.0,950.0,690.0,BLS,SBB,840.0,930.0,650.0,780.0,860.0,590.0,850.0,910.0,700.0,880.0,980.0,670.0,870.0,950.0,690.0
,,Kreuzlingen Hafen,CH,TG,47.64916395658,9.18198226764,71.0,0,4,4,4,4,4,4,4,4,4,4,0,0,0,0,0,0,0,0,0,0,0,0,0,2,4376,4820,4764,5895,5810,5701,5628,5568,5502,4837,0,0,0,0,0,0,0,0,0,0,0,0,0,Kreuzlingen Hafen,exact,2025,2100.0,2400.0,1400.0,"SBB, Thurbo",SBB,1600.0,2000.0,940.0,1900.0,2100.0,1300.0,2100.0,2300.0,1500.0,2100.0,2400.0,1400.0,2100.0,2400.0,1400.0
,,Wattwil,CH,SG,47.29947726415,9.08648237238,63.0,0,4,4,4,4,4,4,4,4,4,4,4,4,4,4,4,4,4,4,4,4,4,8,4,2,10217,9438,9346,9245,9161,9004,8889,8808,8744,8692,8640,8604,8544,8488,8488,8418,8338,8271,8126,8066,7875,7794,3376,Wattwil,exact,2025,8300.0,9200.0,6300.0,"SOB, Thurbo",SOB,7300.0,8200.0,5300.0,6700.0,7300.0,5200.0,7200.0,7900.0,5700.0,8000.0,8900.0,6000.0,8300.0,9200.0,6300.0
,,Wolhusen,CH,LU,47.05548792991,8.0797541053,63.0,0,4,4,4,4,4,4,4,4,4,4,4,4,4,4,4,4,4,4,4,4,4,4,4,2,5142,4708,4659,4616,4561,4478,4430,4388,4354,4317,4284,4252,4203,4159,4159,4114,4069,4026,3931,3886,3756,3709,3147,Wolhusen,exact,2025,3200.0,3600.0,2500.0,BLS,SBB,3000.0,3400.0,2300.0,2700.0,3000.0,2100.0,3100.0,3400.0,2500.0,3000.0,3400.0,2300.0,3200.0,3600.0,2500.0
,,Meggen Zentrum,CH,LU,47.04519444666,8.37439305684,62.0,0,4,4,4,4,4,4,4,4,4,4,4,4,4,4,4,4,4,4,4,4,0,0,0,2,8761,8022,7938,7864,7771,7629,7548,7477,7419,7355,7300,7244,7161,7086,7086,7010,6933,6859,6698,6622,6400,6319,5362,Meggen Zentrum,exact,2025,480.0,510.0,410.0,"SBB, SOB",SBB,370.0,390.0,320.0,420.0,450.0,350.0,490.0,530.0,400.0,520.0,560.0,420.0,480.0,510.0,410.0
,,Grenchen Süd,CH,SO,47.18877468868,7.39818006116,60.0,0,4,4,4,4,4,4,4,4,4,4,4,4,4,4,4,4,4,4,4,4,4,4,4,2,6545,6226,6183,6161,6098,6004,5958,5899,5852,5808,5771,5728,4248,4205,4205,4169,4134,4098,5373,5354,5271,7854,6950,Grenchen Süd,exact,2025,4800.0,5500.0,3000.0,SBB,SBB,5000.0,6000.0,2800.0,4200.0,4900.0,2700.0,4600.0,5300.0,3100.0,4800.0,5700.0,2900.0,4800.0,5500.0,3000.0
,,Luzern Verkehrshaus,CH,LU,47.05393231648,8.33729732768,56.0,0,4,4,4,4,4,4,4,4,4,4,4,4,4,4,4,4,4,4,4,4,0,0,0,2,13775,11772,12482,12366,12219,11996,11869,11756,11665,11564,11478,11390,11260,11142,11142,11022,10902,10785,10531,11213,0,0,0,Luzern Verkehrshaus,exact,2025,880.0,930.0,760.0,"SBB, SOB",SBB,570.0,610.0,480.0,730.0,750.0,690.0,860.0,850.0,860.0,900.0,920.0,870.0,880.0,930.0,760.0
,,Malters,CH,LU,47.03858422129,8.18197195178,56.0,0,4,4,4,4,4,4,4,4,4,4,4,4,4,4,4,4,4,4,4,4,0,0,0,2,8761,8022,7938,7864,7771,7629,7548,7477,7419,7355,7300,7244,7161,7086,7086,7010,6933,6859,6698,6622,6400,6319,5362,Malters,exact,2025,3100.0,3400.0,2300.0,BLS,SBB,2400.0,2700.0,1700.0,2400.0,2600.0,1700.0,2600.0,2900.0,2000.0,2800.0,3200.0,2100.0,3100.0,3400.0,2300.0
,,Rothenthurm,CH,SZ,47.105978,8.674679,56.0,0,4,4,4,4,4,4,4,4,4,4,4,4,4,0,0,0,0,0,0,0,0,4,0,2,2753,2645,2629,2620,2596,2557,2538,2515,2489,2468,2439,2417,2390,2369,2369,2348,2323,2294,2244,2229,2133,2066,1529,Rothenthurm,exact,2025,630.0,660.0,570.0,SOB,SOB,430.0,500.0,280.0,510.0,540.0,440.0,540.0,590.0,410.0,610.0,640.0,530.0,630.0,660.0,570.0
,,Küssnacht am Rigi,CH,SZ,47.08359415523,8.43351745732,55.0,0,4,4,4,4,4,4,4,4,4,4,4,4,4,4,4,4,4,4,4,4,4,8,4,2,14894,14307,14223,14172,14044,13836,13732,13604,13463,13353,13197,13076,12927,12815,12815,12701,12570,12408,12138,12057,11537,11177,8269,Küssnacht am Rigi,exact,2025,2900.0,3100.0,2300.0,"SBB, SOB",SBB,2200.0,2400.0,1700.0,2500.0,2700.0,2000.0,2700.0,3000.0,2200.0,2800.0,3100.0,2200.0,2900.0,3100.0,2300.0
,,Uznach,CH,SG,47.22428279615,8.98069081394,50.0,0,4,4,4,4,4,4,4,4,4,4,4,4,4,4,4,4,4,4,4,4,4,8,4,2,7823,7226,7156,7079,7014,6894,6806,6744,6694,6655,6615,6587,6541,6499,6499,6445,6384,6333,6222,6176,6029,5967,5169,Uznach,exact,2025,7000.0,7800.0,5300.0,SOB,SBB,7600.0,8600.0,5500.0,7900.0,8700.0,6100.0,8700.0,9500.0,6900.0,7000.0,7800.0,5300.0,7000.0,7800.0,5300.0
,,Biberbrugg,CH,SZ,47.157075,8.722516,34.0,0,4,4,4,4,4,4,4,4,4,4,4,4,4,4,4,4,4,4,4,4,4,8,4,2,5953,5718,5684,5664,5613,5530,5488,5437,5381,5337,5274,5226,5167,5122,5122,5076,5024,4959,4851,4819,4611,4467,3305,Biberbrugg,exact,2025,3300.0,3500.0,2900.0,"SBB, SOB",SOB,2600.0,2800.0,2200.0,2700.0,2900.0,2400.0,3000.0,3300.0,2500.0,3200.0,3400.0,2800.0,3300.0,3500.0,2900.0
,,Le Locle,CH,NE,47.05786104195,6.74615327632,130.0,0,4,2,2,2,2,2,2,2,2,2,2,2,2,2,2,2,2,2,2,2,2,4,4,2,11021,10911,10898,10950,10875,10770,10745,10729,10766,10787,10855,10892,10864,10816,10816,10760,10647,10563,10470,10426,10274,10172,9517,Le Locle,exact,2025,2800.0,3200.0,1700.0,SBB,SBB,2300.0,2600.0,1400.0,2200.0,2600.0,1400.0,2500.0,3000.0,1500.0,2900.0,3300.0,1800.0,2800.0,3200.0,1700.0
,,La Tour-de-Trême,CH,FR,46.60858,7.06409,,0,4,0,0,0,0,0,0,0,0,0,0,0,0,0,0,0,0,0,0,0,0,0,0,2,11902,0,0,0,0,0,0,0,0,0,0,0,0,0,0,0,0,0,0,0,0,0,0,,unmatched,,,,,,,,,,,,,,,,,,,,,
,,Broc-Village,CH,FR,46.60414,7.09872,,0,4,0,0,0,0,0,0,0,0,0,0,0,0,0,0,0,0,0,0,0,0,0,0,2,2084,1452,1437,1426,1405,1376,1357,1339,1324,1312,1297,1284,1265,1248,1248,1225,1199,1171,1124,1105,1045,1002,772,,unmatched,,,,,,,,,,,,,,,,,,,,,
,,Singen (Hohentwiel),DE,BW,47.758925,8.841011,51.0,0,2,2,2,2,2,2,2,2,2,2,2,2,2,2,2,2,2,2,2,2,2,2,2,2,49705,49705,49705,49705,49705,49705,49705,49705,49705,49705,49705,49705,49705,49705,49705,49705,49705,49705,49705,49705,49705,49705,49705,,unmatched,,,,,,,,,,,,,,,,,,,,,
,,Broc-Chocolaterie,CH,FR,46.60523,7.10931,,0,2,0,0,0,0,0,0,0,0,0,0,0,0,0,0,0,0,0,0,0,0,0,0,2,1042,1452,1436,1426,1405,1376,1357,1339,1324,1311,1296,1283,1265,1248,1248,1224,1199,1171,1123,1104,1044,1001,771,,unmatched,,,,,,,,,,,,,,,,,,,,,
,,Chêne-Bourg,CH,GE,46.19660016902,6.19733346412,195.0,0,0,8,8,4,0,0,0,0,0,0,0,0,0,0,0,0,0,0,0,0,0,0,0,2,10346,9667,9593,9571,9450,9264,9180,9124,9085,9001,8925,8821,8735,8603,8603,8459,8345,8299,8168,8039,7760,7546,6412,Chêne-Bourg,exact,2025,7000.0,8200.0,4100.0,SBB,SBB,,,,4000.0,4600.0,2400.0,4800.0,5700.0,2900.0,5900.0,6800.0,3900.0,7000.0,8200.0,4100.0
,,Lancy-Bachet,CH,GE,46.17433286793,6.12936213667,185.0,0,0,8,8,4,0,0,0,0,0,0,0,0,0,0,0,0,0,0,0,0,0,0,0,2,0,18530,18389,12230,0,0,0,0,17414,17253,17107,16909,16744,16490,16490,16215,15996,15908,15658,15409,14875,14464,12290,Lancy-Bachet,exact,2025,9300.0,11100.0,5300.0,SBB,SBB,,,,5300.0,6300.0,2900.0,6600.0,7800.0,3900.0,7000.0,8300.0,4100.0,9300.0,11100.0,5300.0
,,Genève-Champel,CH,GE,46.19219334432,6.15349872414,182.0,0,0,8,8,8,0,0,0,0,0,0,0,0,0,0,0,0,0,0,0,0,0,0,0,2,0,38432,41954,38049,0,0,0,0,0,0,0,0,0,0,0,0,0,0,0,0,0,0,0,Genève-Champel,exact,2025,7400.0,9300.0,3200.0,SBB,SBB,,,,4200.0,5200.0,1800.0,5200.0,6400.0,2400.0,6100.0,7600.0,2700.0,7400.0,9300.0,3200.0
,,Les Hauts-Geneveys,CH,NE,47.04717656312,6.87467312928,128.0,0,0,8,8,8,8,8,8,8,8,8,8,8,4,4,4,4,4,4,4,4,4,4,4,2,0,8778,8768,8810,8750,8665,8645,8632,8662,8679,8734,8763,17481,17404,17404,17314,17132,16998,16847,16776,16533,8184,7657,Les Hauts-Geneveys,exact,2025,1100.0,1300.0,540.0,"BLS, SBB",SBB,950.0,1200.0,490.0,990.0,1200.0,510.0,1100.0,1300.0,540.0,1100.0,1300.0,560.0,1100.0,1300.0,540.0
,,Les Geneveys-sur-Coffrane,CH,NE,47.01509638876,6.85321763217,123.0,0,0,8,8,8,8,8,8,8,8,8,8,8,0,0,0,0,0,0,0,0,0,4,4,2,0,8778,8768,8809,8749,8665,8645,8632,8661,8679,8733,8763,0,0,0,0,0,0,0,0,0,8184,7656,Les Geneveys-sur-Coffrane,exact,2025,940.0,1100.0,690.0,"BLS, SBB",SBB,670.0,780.0,420.0,700.0,820.0,430.0,790.0,920.0,480.0,830.0,970.0,500.0,940.0,1100.0,690.0
,,Chambrelien,CH,NE,46.96710900774,6.81225676542,121.0,0,0,8,8,8,8,8,8,8,8,8,8,8,4,4,4,4,4,4,4,4,4,4,4,2,1343,1329,1328,1334,1325,1312,1309,1307,1312,1314,1323,1327,1324,1318,1318,1311,1297,1287,1276,1270,1252,1239,1159,Chambrelien,exact,2025,770.0,910.0,470.0,"BLS, SBB",SBB,520.0,610.0,330.0,560.0,650.0,340.0,680.0,810.0,400.0,730.0,860.0,430.0,770.0,910.0,470.0
,,Lalden,CH,VS,46.3011,7.9099,158.0,0,0,4,4,0,0,0,0,0,0,4,4,4,4,4,4,4,4,4,4,4,4,4,4,2,817,757,749,744,733,716,708,698,692,689,684,680,673,665,665,655,645,635,616,608,584,564,446,Lalden,exact,2025,49.0,49.0,49.0,BLS,BLS,49.0,49.0,49.0,,,,,,,,,,49.0,49.0,49.0
,,La Chaux-de-Fonds Les Forges,CH,NE,47.09133532321,6.81278026047,123.0,0,0,4,4,4,4,4,0,0,0,0,0,0,0,0,0,0,0,0,0,0,0,0,0,2,0,9339,9328,9372,9308,9218,0,0,0,0,0,0,0,0,0,0,0,0,0,0,0,0,0,La Chaux-de-Fonds Les Forges,exact,2025,530.0,640.0,300.0,SBB,SBB,,,,160.0,180.0,110.0,220.0,260.0,130.0,270.0,330.0,150.0,530.0,640.0,300.0
,,Bern Brünnen Westside,CH,BE,46.94403700839,7.3752780803,69.0,0,0,4,4,0,0,0,0,0,0,0,0,0,0,0,0,0,0,0,0,0,0,0,0,2,0,8173,8643,0,0,0,0,0,0,0,0,0,0,0,0,0,0,0,0,0,0,0,0,Bern Brünnen Westside,exact,2025,2900.0,3000.0,2500.0,BLS,BLS,,,,2700.0,2800.0,2400.0,3000.0,3100.0,2700.0,3200.0,3400.0,2900.0,2900.0,3000.0,2500.0
,,Sempach-Neuenkirch,CH,LU,47.11605321162,8.19597905819,67.0,0,0,4,4,4,4,4,4,4,4,4,4,4,4,4,4,4,4,4,4,4,4,0,0,2,8142,7455,7378,7309,7222,7090,7015,6948,6894,6835,6784,6732,6655,6585,6585,6514,6443,6375,6224,6154,5948,5873,4983,Sempach-Neuenkirch,exact,2025,2400.0,2600.0,1800.0,SBB,SBB,2100.0,2500.0,1400.0,2000.0,2200.0,1500.0,2300.0,2400.0,1900.0,2400.0,2600.0,2000.0,2400.0,2600.0,1800.0
,,Rothenburg Station,CH,LU,47.08918367455,8.24756144538,66.0,0,0,4,4,4,4,4,4,0,0,0,0,0,0,0,0,0,0,0,0,0,0,0,0,2,8825,8080,7997,7922,7828,7685,7603,7531,7473,7409,7353,7297,7213,7138,7138,7061,6984,6909,6747,6670,6447,6365,5401,Rothenburg Station,exact,2025,1300.0,1500.0,820.0,SBB,SBB,,,,1100.0,1200.0,740.0,1200.0,1400.0,760.0,1300.0,1500.0,840.0,1300.0,1500.0,820.0
,,St. Gallen Haggen,CH,SG,47.40775703237,9.33814644334,66.0,0,0,4,4,0,0,0,0,0,0,0,0,0,0,0,0,0,0,0,0,0,0,0,0,2,0,8482,8400,0,0,0,0,0,0,0,0,0,0,0,0,0,0,0,0,0,0,0,0,St. Gallen Haggen,exact,2025,810.0,920.0,580.0,"SOB, Thurbo",SOB,1000.0,1200.0,660.0,610.0,710.0,380.0,670.0,770.0,430.0,710.0,830.0,450.0,810.0,920.0,580.0
,,Emmenbrücke,CH,LU,47.07060149968,8.28256536801,57.0,0,0,4,4,4,4,4,4,4,4,4,4,4,4,4,4,4,4,4,4,4,4,0,0,2,36504,33424,33077,32769,32380,31789,31451,31153,30912,30645,30417,30184,29837,29526,29526,29208,28889,28581,27907,27591,26666,26330,22342,Emmenbrücke,exact,2025,5900.0,6800.0,3900.0,SBB,SBB,4800.0,5600.0,3200.0,4700.0,5300.0,3200.0,5400.0,6000.0,3900.0,6000.0,6800.0,4200.0,5900.0,6800.0,3900.0
,,Wauwil,CH,LU,47.18385897476,8.01902005935,55.0,0,0,4,4,4,4,4,4,4,4,4,4,4,4,4,4,4,4,4,4,4,4,0,0,2,2930,2683,2655,2630,2599,2552,2524,2501,2481,2460,2441,2423,2395,2370,2370,2344,2319,2294,2240,2215,2140,2113,1793,Wauwil,exact,2025,990.0,1100.0,710.0,SBB,SBB,940.0,1100.0,590.0,830.0,940.0,580.0,910.0,1000.0,620.0,990.0,1100.0,680.0,990.0,1100.0,710.0
,,Nebikon,CH,LU,47.19238062099,7.9774494816,51.0,0,0,4,4,4,4,4,4,4,4,4,4,4,4,4,4,4,4,4,4,4,4,0,0,2,3176,2908,2878,2851,2817,2766,2736,2710,2689,2666,2646,2626,2596,2569,2569,2541,2513,2486,2428,2400,2320,2291,1944,Nebikon,exact,2025,1600.0,1800.0,1100.0,"SBB, SOB",SBB,1400.0,1600.0,900.0,1300.0,1500.0,900.0,1500.0,1700.0,970.0,1600.0,1800.0,1000.0,1600.0,1800.0,1100.0
,,Dagmersellen,CH,LU,47.21755794083,7.97902592247,48.0,0,0,4,4,4,4,4,4,4,4,4,4,4,4,4,4,4,4,4,4,4,4,0,0,2,6627,6068,6005,5949,5878,5771,5709,5655,5611,5563,5522,5479,5416,5360,5360,5302,5244,5188,5066,5009,4841,4780,4056,Dagmersellen,exact,2025,1100.0,1300.0,770.0,SBB,SBB,980.0,1200.0,590.0,990.0,1100.0,630.0,1200.0,1300.0,830.0,1200.0,1300.0,810.0,1100.0,1300.0,770.0
,,Reiden,CH,LU,47.24146837213,7.96877438563,45.0,0,0,4,4,4,4,4,4,4,4,4,4,4,4,4,4,4,4,4,4,4,4,0,0,2,8446,7734,7653,7582,7492,7355,7277,7208,7152,7091,7038,6984,6904,6832,6832,6758,6684,6613,6457,6384,6170,6092,5170,Reiden,exact,2025,1600.0,1800.0,990.0,SBB,SBB,1500.0,1800.0,870.0,1400.0,1600.0,830.0,1500.0,1800.0,920.0,1600.0,1900.0,980.0,1600.0,1800.0,990.0
,,Wildegg,CH,AG,47.41527514476,8.16301990851,33.0,0,0,4,4,4,4,4,4,4,4,4,4,4,4,4,4,4,4,4,4,4,4,4,4,2,5470,5051,4997,4948,4888,4783,4728,4667,4612,4561,4512,4461,4396,4339,4339,4279,4219,4158,4035,3978,3829,3737,3086,Wildegg,exact,2025,1500.0,1700.0,940.0,SBB,SBB,1300.0,1600.0,700.0,1200.0,1400.0,730.0,1300.0,1500.0,810.0,1500.0,1700.0,910.0,1500.0,1700.0,940.0
,,Schmitten FR,CH,FR,46.86294135799,7.25392039782,93.0,0,0,2,0,0,0,0,0,0,0,0,0,0,0,0,0,0,0,0,0,0,0,0,0,2,4783,4444,4396,4365,4300,4211,4153,4099,4052,4013,3967,3928,3872,3820,3820,3748,3669,3585,3439,3381,3197,3064,2362,Schmitten FR,exact,2025,1400.0,1600.0,810.0,BLS,SBB,,,,1200.0,1400.0,700.0,1300.0,1600.0,790.0,1400.0,1600.0,830.0,1400.0,1600.0,810.0
,,Flamatt,CH,FR,46.8884913573,7.31957081153,75.0,0,0,2,0,0,0,0,0,0,0,0,0,0,0,0,0,0,0,0,0,0,0,0,0,2,6365,5913,5850,5808,5722,5604,5526,5454,5392,5340,5279,5227,5152,5083,5083,4987,4883,4770,4576,4499,4255,4078,3143,Flamatt,exact,2025,1700.0,2000.0,1000.0,"BLS, SBB",SBB,1600.0,1900.0,920.0,1300.0,1500.0,800.0,1400.0,1600.0,880.0,1400.0,1700.0,870.0,1700.0,2000.0,1000.0
,,Balerna,CH,TI,45.8467450568,9.00503560941,149.0,0,0,0,0,0,0,0,0,0,0,0,0,0,0,0,0,0,0,0,0,0,0,8,0,2,3466,3376,3363,3346,3335,3301,3283,3272,3277,3294,3298,3304,3281,3266,3266,3231,3185,3141,3130,3102,3005,2939,2529,Balerna,exact,2025,730.0,880.0,400.0,SBB,SBB,740.0,950.0,280.0,660.0,800.0,320.0,660.0,790.0,360.0,730.0,860.0,450.0,730.0,880.0,400.0
,,Salgesch,CH,VS,46.30919533663,7.57819435695,144.0,0,0,0,0,0,0,0,0,0,0,0,0,0,0,0,0,0,0,0,0,0,0,0,8,2,1887,1749,1731,1718,1693,1653,1635,1613,1599,1592,1580,1570,1553,1535,1535,1513,1489,1467,1423,1403,1349,1302,1030,Salgesch,exact,2025,440.0,470.0,350.0,RegionAlps,SBB,330.0,350.0,290.0,360.0,380.0,310.0,410.0,440.0,330.0,420.0,450.0,360.0,440.0,470.0,350.0
,,Turtmann,CH,VS,46.30933141472,7.69960496792,138.0,0,0,0,0,0,0,0,0,0,0,0,0,0,0,0,0,0,0,0,0,0,0,0,8,2,1328,1231,1217,1209,1191,1163,1150,1135,1125,1120,1112,1104,1093,1080,1080,1065,1047,1032,1001,987,949,916,725,Turtmann,exact,2025,390.0,450.0,260.0,RegionAlps,SBB,290.0,330.0,210.0,310.0,340.0,220.0,340.0,380.0,250.0,370.0,420.0,270.0,390.0,450.0,260.0
,,Capolago-Riva S. Vitale,CH,TI,45.90283729577,8.97890525715,136.0,0,0,0,0,0,0,0,0,0,0,0,0,0,0,0,0,0,0,0,0,0,0,8,0,2,0,0,0,0,0,0,0,0,0,0,7449,7463,7412,7379,7379,7298,7195,7096,7070,7008,6787,6639,0,Capolago-Riva S. Vitale,exact,2025,1100.0,1200.0,730.0,SBB,SBB,870.0,1000.0,520.0,920.0,1000.0,640.0,1000.0,1200.0,710.0,1000.0,1200.0,700.0,1100.0,1200.0,730.0
,,Gampel-Steg,CH,VS,46.30651548091,7.74758116307,135.0,0,0,0,0,0,0,0,0,0,0,0,0,0,0,0,0,0,0,0,0,0,0,0,8,2,0,0,0,0,0,0,0,0,0,0,0,0,0,0,0,0,0,0,0,0,0,0,686,Gampel-Steg,exact,2025,800.0,930.0,500.0,"RegionAlps, SBB",SBB,530.0,630.0,310.0,720.0,850.0,400.0,790.0,950.0,430.0,740.0,900.0,380.0,800.0,930.0,500.0
,,Maroggia-Melano,CH,TI,45.93243507653,8.97393980178,133.0,0,0,0,0,0,0,0,0,0,0,0,0,0,0,0,0,0,0,0,0,0,0,8,0,2,3119,3038,3026,3011,3001,2970,2955,2945,2949,2964,2967,2973,2953,2939,2939,2907,2866,2827,2816,2791,2704,2645,2275,Maroggia-Melano,exact,2025,1000.0,1100.0,750.0,SBB,SBB,700.0,820.0,440.0,870.0,990.0,610.0,920.0,1000.0,660.0,980.0,1100.0,660.0,1000.0,1100.0,750.0
,,Raron,CH,VS,46.30627441466,7.80151060193,132.0,0,0,0,0,0,0,0,0,0,0,0,0,0,0,0,0,0,0,0,0,0,0,0,8,2,2232,2068,2047,2032,2002,1955,1933,1907,1891,1882,1869,1856,1837,1815,1815,1789,1761,1735,1682,1659,1596,1540,1219,Raron,exact,2025,910.0,1000.0,630.0,"RegionAlps, SBB",SBB,640.0,720.0,450.0,760.0,860.0,530.0,870.0,1000.0,550.0,900.0,1000.0,680.0,910.0,1000.0,630.0
,,Melide,CH,TI,45.95571350206,8.94835919512,128.0,0,0,0,0,0,0,0,0,0,0,0,0,0,0,0,0,0,0,0,0,0,0,8,0,2,1853,1805,1798,1789,1783,1765,1755,1749,1752,1761,1763,1766,1754,1746,1746,1727,1703,1679,1673,1658,1606,1571,1352,Melide,exact,2025,1200.0,1200.0,990.0,SBB,SBB,750.0,810.0,610.0,1100.0,1200.0,930.0,1100.0,1200.0,1000.0,1200.0,1200.0,990.0,1200.0,1200.0,990.0
,,Lamone-Cadempino,CH,TI,46.03971861509,8.9321250232,127.0,0,0,0,0,0,0,0,0,4,4,4,4,0,0,0,0,0,0,0,0,0,0,8,0,2,1835,1788,1781,1772,1766,1748,1739,1733,1735,1744,1746,1749,1737,1730,1730,1711,1687,1663,1657,1643,1591,1556,1339,Lamone-Cadempino,exact,2025,1700.0,2200.0,710.0,SBB,SBB,2200.0,2900.0,730.0,1400.0,1700.0,620.0,1800.0,2200.0,750.0,1700.0,2200.0,690.0,1700.0,2200.0,710.0
,,Rheineck,CH,SG,47.46688593391,9.59091263503,90.0,0,0,0,0,0,0,0,0,0,0,0,0,0,0,0,0,4,4,4,4,4,4,4,4,2,3921,3622,3587,3548,3516,3456,3412,3381,3356,3336,3316,3302,3279,3258,3258,3231,3200,3175,3119,3096,3022,2991,2591,Rheineck,exact,2025,1700.0,2000.0,1200.0,"SOB, Thurbo",SBB,1700.0,2000.0,1100.0,1500.0,1700.0,980.0,1700.0,1900.0,1100.0,1700.0,2000.0,1200.0,1700.0,2000.0,1200.0
,,Gümmenen,CH,BE,46.9421821973,7.23440939756,81.0,0,0,0,0,0,0,0,0,0,0,0,0,0,0,0,0,0,0,0,0,4,4,4,4,2,1295,1260,1254,1251,1242,1228,1223,1218,1214,1209,1204,1199,1188,1179,1179,1169,1159,1150,1138,1132,1118,1109,1072,Gümmenen,exact,2025,800.0,920.0,530.0,BLS,BLS,710.0,830.0,430.0,660.0,740.0,490.0,740.0,840.0,500.0,730.0,830.0,500.0,800.0,920.0,530.0
,,Münchenbuchsee,CH,BE,47.02137578562,7.45194766971,81.0,0,0,0,0,0,0,0,0,0,0,0,0,0,0,0,0,0,0,8,8,8,8,8,0,2,10874,10574,10525,10501,10426,10307,10268,10226,10190,10146,10108,10063,9974,9895,9895,9815,9730,9656,9551,9502,9382,9309,9002,Münchenbuchsee,exact,2025,3600.0,4400.0,1900.0,BLS,SBB,3300.0,4100.0,1500.0,3100.0,3700.0,1700.0,3500.0,4200.0,1900.0,3600.0,4300.0,1900.0,3600.0,4400.0,1900.0
,,Degersheim,CH,SG,47.37257810176,9.20011957075,76.0,0,0,0,0,0,0,0,0,0,0,0,0,0,0,0,0,4,4,4,4,4,4,8,4,2,4608,4257,4216,4170,4132,4061,4009,3973,3944,3920,3897,3881,3854,3829,3829,3797,3761,3731,3665,3638,3552,3515,3045,Degersheim,exact,2025,1300.0,1500.0,970.0,"SOB, Thurbo",SOB,1200.0,1400.0,800.0,1200.0,1300.0,780.0,1200.0,1300.0,790.0,1300.0,1500.0,920.0,1300.0,1500.0,970.0
,,Bern Bümpliz Nord,CH,BE,46.94582923829,7.38975568783,67.0,0,0,0,0,0,0,0,0,0,0,0,0,0,0,0,0,0,0,0,0,4,4,4,0,2,0,0,0,0,0,0,0,0,0,0,0,0,0,0,0,0,0,0,0,10857,9131,10636,0,Bern Bümpliz Nord,exact,2025,2600.0,3000.0,1500.0,BLS,BLS,3600.0,4300.0,2000.0,2600.0,3100.0,1700.0,2900.0,3400.0,1800.0,3100.0,3600.0,1900.0,2600.0,3000.0,1500.0
,,Lichtensteig,CH,SG,47.31969658645,9.08318877166,67.0,0,0,0,0,0,0,0,0,0,0,0,0,0,0,0,0,0,0,0,0,0,0,0,4,2,0,0,0,0,0,0,0,0,0,0,0,0,0,0,0,0,0,0,0,0,0,0,3376,Lichtensteig,exact,2025,1000.0,1100.0,870.0,"SOB, Thurbo",SOB,840.0,930.0,620.0,1000.0,1100.0,790.0,940.0,1000.0,790.0,1000.0,1100.0,840.0,1000.0,1100.0,870.0
,,St. Gallen St. Fiden,CH,SG,47.43454038248,9.39344380222,66.0,0,0,0,0,0,0,0,0,0,0,0,0,0,0,0,0,8,8,8,8,8,8,12,0,2,0,0,0,0,0,0,0,0,0,0,0,0,0,0,0,23956,23730,23540,23126,22955,22411,26616,0,St. Gallen St. Fiden,exact,2025,2800.0,3200.0,2000.0,"SBB, SOB, Thurbo",SBB,2600.0,3100.0,1500.0,2600.0,3000.0,1600.0,2700.0,3200.0,1700.0,2800.0,3200.0,1800.0,2800.0,3200.0,2000.0
,,Pratteln,CH,BL,47.52266863172,7.69081730427,65.0,0,0,0,0,0,0,0,0,0,0,0,0,0,0,0,0,0,0,0,0,0,0,4,0,2,17353,16807,16729,16704,16566,16321,16232,16130,16047,15973,15911,15834,15701,15594,15594,15447,15330,15265,15123,15035,14751,14577,12260,Pratteln,exact,2025,8700.0,10200.0,5200.0,SBB,SBB,8600.0,10100.0,5100.0,8000.0,9000.0,5600.0,8500.0,9900.0,5200.0,8900.0,10500.0,5300.0,8700.0,10200.0,5200.0
,,Stein am Rhein,CH,SH,47.65611096499,8.85502005429,65.0,0,0,0,0,0,0,0,0,0,0,0,0,0,0,0,0,0,0,0,0,0,0,0,4,2,3636,3587,3575,3611,3548,3471,3421,3385,3354,3339,3313,3290,3252,3235,3235,3209,3175,3142,3081,3067,3004,3007,2840,Stein am Rhein,exact,2025,1900.0,1900.0,1800.0,Thurbo,SBB,2000.0,2100.0,1800.0,1800.0,1800.0,1700.0,1700.0,1700.0,1700.0,1800.0,1900.0,1700.0,1900.0,1900.0,1800.0
,,Hergiswil NW,CH,NW,46.98261792837,8.31018280227,59.0,0,0,0,0,0,0,0,0,0,0,0,0,0,0,0,0,4,4,4,4,4,4,4,4,2,6471,6291,6258,6232,6187,6105,6033,5981,5922,5941,5906,5849,5830,5783,5783,5757,5715,5678,5607,5599,5471,5324,4024,Hergiswil NW,exact,2025,2700.0,3000.0,2000.0,Zentralbahn,ZB,,,,2200.0,2400.0,1600.0,2400.0,2700.0,1800.0,2600.0,3000.0,1900.0,2700.0,3000.0,2000.0
,,Sattel-Aegeri,CH,SZ,47.079878,8.627133,59.0,0,0,0,0,0,0,0,0,0,0,0,0,0,0,0,0,0,0,0,0,0,0,4,0,2,2191,2105,2092,2085,2066,2035,2020,2001,1981,1964,1941,1924,1902,1885,1885,1868,1849,1825,1786,1774,1697,1644,1216,Sattel-Aegeri,exact,2023,360.0,390.0,280.0,SOB,SOB,300.0,320.0,260.0,320.0,350.0,270.0,360.0,390.0,280.0,,,,,,
,,Horw,CH,LU,47.01748015688,8.306992215,53.0,0,0,0,0,0,0,0,0,0,0,0,0,0,0,0,0,0,0,0,0,0,0,4,0,2,17446,15974,15808,15661,15475,15193,15031,14889,14773,14646,14537,14426,14260,14111,14111,13959,13806,13659,13337,13186,12744,12584,10678,Horw,exact,2025,3400.0,3900.0,2200.0,Zentralbahn,ZB,2000.0,2400.0,1100.0,2200.0,2500.0,1400.0,2700.0,3200.0,1700.0,3200.0,3700.0,2100.0,3400.0,3900.0,2200.0
,,Schmerikon,CH,SG,47.22516013059,8.94338195257,46.0,0,0,0,0,0,4,4,4,4,4,4,4,4,4,4,4,4,4,4,4,4,4,8,0,2,4642,4288,4246,4200,4162,4091,4039,4002,3972,3949,3925,3909,3882,3856,3856,3824,3788,3758,3692,3665,3578,3541,3067,Schmerikon,exact,2025,1300.0,1400.0,1100.0,SOB,SBB,1300.0,1400.0,1000.0,1300.0,1500.0,1100.0,1500.0,1600.0,1200.0,1300.0,1400.0,1100.0,1300.0,1400.0,1100.0
,,Aarburg-Oftringen,CH,AG,47.32026846951,7.90822260672,38.0,0,0,0,0,0,0,0,0,4,4,4,4,4,4,4,4,4,4,0,0,0,0,0,0,2,9949,9187,9090,9000,8891,8699,8600,8490,8389,8295,8207,8115,7995,7893,7893,7784,7673,7563,7339,7237,6964,6798,5614,Aarburg-Oftringen,exact,2025,2500.0,3000.0,1400.0,"SBB, SOB",SBB,2500.0,3000.0,1300.0,2500.0,2900.0,1500.0,2700.0,3200.0,1600.0,2800.0,3400.0,1700.0,2500.0,3000.0,1400.0
,,Dulliken,CH,SO,47.35427613724,7.94650133116,38.0,0,0,0,0,0,0,0,0,0,0,4,4,4,0,0,0,0,0,0,0,0,0,0,0,2,5791,5509,5471,5451,5396,5313,5272,5220,5178,5139,5106,5069,5012,4961,4961,4918,4878,4834,4755,4737,4664,4633,4100,Dulliken,exact,2025,690.0,800.0,430.0,SBB,SBB,340.0,390.0,220.0,490.0,540.0,370.0,540.0,590.0,410.0,690.0,820.0,410.0,690.0,800.0,430.0
,,Wollerau,CH,SZ,47.195542,8.724749,35.0,0,0,0,0,0,0,0,0,0,0,0,0,0,0,0,4,4,4,4,4,4,4,8,2,2,0,0,0,0,0,0,0,0,0,0,0,0,0,0,1933,1915,1895,1871,1830,1818,1856,3371,1108,Wollerau,exact,2025,620.0,710.0,420.0,SOB,SOB,570.0,650.0,380.0,510.0,570.0,350.0,570.0,650.0,380.0,630.0,720.0,420.0,620.0,710.0,420.0
,,Richterswil,CH,ZH,47.209238,8.706609,28.0,0,0,0,0,0,0,0,0,0,0,0,0,0,0,0,0,0,0,0,0,0,0,0,4,2,7835,7304,7238,7168,7104,6991,6924,6874,6811,6730,6657,6584,6489,6400,6400,6308,6233,6161,5979,5897,5631,0,6653,Richterswil,exact,2025,5400.0,5900.0,4100.0,"SBB, SOB",SBB,4800.0,5400.0,3400.0,4300.0,4800.0,3300.0,5000.0,5600.0,3700.0,5200.0,5800.0,3900.0,5400.0,5900.0,4100.0
,,Samstagern,CH,ZH,47.1913,8.686509,26.0,0,0,0,0,0,0,0,0,0,0,0,0,0,0,0,0,0,0,0,0,0,0,4,2,2,7836,7304,7239,7169,7105,6992,6924,6874,6812,6731,6657,6585,6489,6400,6400,6308,6233,6162,5980,5898,5632,10986,3327,Samstagern,exact,2025,1100.0,1300.0,640.0,"SBB, SOB",SOB,1000.0,1200.0,570.0,860.0,990.0,570.0,990.0,1200.0,570.0,1000.0,1200.0,590.0,1100.0,1300.0,640.0
